[
  {
    "name": "清华园",
    "primary": false,
    "address": "北京海淀区知春路大运村北航西门对面",
    "owner": "北京铁路局",
    "category": "",
    "type": "客运站",
    "province": "北京",
    "city": "海淀区",
    "lng": "116.339398",
    "lat": "39.982418",
    "pinyin": "qinghuayuan",
    "abbreviation": "QHP"
  },
  {
    "name": "昌平北",
    "primary": true,
    "address": "北京市昌平区昌平北站",
    "owner": "北京铁路局",
    "category": "",
    "type": "客运站",
    "province": "北京",
    "city": "昌平区",
    "lng": "116.233135",
    "lat": "40.231278",
    "pinyin": "changpingbei",
    "abbreviation": "VBP"
  },
  {
    "name": "昌平",
    "primary": false,
    "address": "北京市昌平区马池口下念头村",
    "owner": "北京铁路局",
    "category": "",
    "type": "客运站",
    "province": "北京",
    "city": "昌平区",
    "lng": "116.193638",
    "lat": "40.190089",
    "pinyin": "changping",
    "abbreviation": "CPP"
  },
  {
    "name": "南口",
    "primary": false,
    "address": "北京市昌平区南口镇交通街84号",
    "owner": "北京铁路局",
    "category": "",
    "type": "客运站",
    "province": "北京",
    "city": "昌平区",
    "lng": "116.129665",
    "lat": "40.2392609999999",
    "pinyin": "nankou",
    "abbreviation": "NKP"
  },
  {
    "name": "官高",
    "primary": false,
    "address": "北京市昌平区南邵镇官高村",
    "owner": "北京铁路局",
    "category": "",
    "type": "乘降所",
    "province": "北京",
    "city": "昌平区",
    "lng": "116.30933",
    "lat": "40.237749",
    "pinyin": "guangao",
    "abbreviation": "GVP"
  },
  {
    "name": "北京东",
    "primary": true,
    "address": "北京市朝阳区百子湾路27号",
    "owner": "北京铁路局",
    "category": "",
    "type": "客运站",
    "province": "北京",
    "city": "朝阳区",
    "lng": "116.484666",
    "lat": "39.902777",
    "pinyin": "beijingdong",
    "abbreviation": "BOP"
  },
  {
    "name": "黄村",
    "primary": false,
    "address": "北京市大兴区黄村镇林校路",
    "owner": "北京铁路局",
    "category": "",
    "type": "客运站",
    "province": "北京",
    "city": "大兴区",
    "lng": "116.332264",
    "lat": "39.7214949999999",
    "pinyin": "huangcun",
    "abbreviation": "HCP"
  },
  {
    "name": "北京",
    "primary": true,
    "address": "北京市东城区毛家湾胡同甲13号",
    "owner": "北京铁路局",
    "category": "",
    "type": "客运站",
    "province": "北京",
    "city": "东城区",
    "lng": "116.427257999999",
    "lat": "39.903708",
    "pinyin": "beijing",
    "abbreviation": "BJP"
  },
  {
    "name": "云居寺",
    "primary": false,
    "address": "北京市房山区大石窝乡云居寺火车站",
    "owner": "北京铁路局",
    "category": "",
    "type": "乘降所",
    "province": "北京",
    "city": "房山区",
    "lng": "115.800427",
    "lat": "39.6215839999999",
    "pinyin": "yunjusi",
    "abbreviation": "AFP"
  },
  {
    "name": "孤山口",
    "primary": false,
    "address": "北京市房山区韩村河镇下中院村",
    "owner": "北京铁路局",
    "category": "",
    "type": "乘降所",
    "province": "北京",
    "city": "房山区",
    "lng": "115.860834",
    "lat": "39.6373639999999",
    "pinyin": "gushankou",
    "abbreviation": "GSP"
  },
  {
    "name": "平峪",
    "primary": false,
    "address": "北京市房山区平峪镇平峪火车站",
    "owner": "北京铁路局",
    "category": "",
    "type": "乘降所",
    "province": "北京",
    "city": "房山区",
    "lng": "115.552252999999",
    "lat": "39.6664779999999",
    "pinyin": "pingyu",
    "abbreviation": "PYP"
  },
  {
    "name": "南观村",
    "primary": false,
    "address": "北京市房山区青龙湖镇南观村火车站",
    "owner": "北京铁路局",
    "category": "",
    "type": "乘降所",
    "province": "北京",
    "city": "房山区",
    "lng": "116.002951999999",
    "lat": "39.7733739999999",
    "pinyin": "nanguancun",
    "abbreviation": "NGP"
  },
  {
    "name": "上万",
    "primary": false,
    "address": "北京市房山区青龙湖镇上万站",
    "owner": "北京铁路局",
    "category": "",
    "type": "乘降所",
    "province": "北京",
    "city": "房山区",
    "lng": "116.042595",
    "lat": "39.823433",
    "pinyin": "shangwan",
    "abbreviation": "SWP"
  },
  {
    "name": "十渡",
    "primary": false,
    "address": "北京市房山区十渡镇十渡村",
    "owner": "北京铁路局",
    "category": "",
    "type": "客运站",
    "province": "北京",
    "city": "房山区",
    "lng": "115.589382",
    "lat": "39.6471969999999",
    "pinyin": "shidu",
    "abbreviation": "SEP"
  },
  {
    "name": "燕山",
    "primary": false,
    "address": "北京市房山区燕山中路7号",
    "owner": "北京铁路局",
    "category": "",
    "type": "客运站",
    "province": "北京",
    "city": "房山区",
    "lng": "115.95867",
    "lat": "39.750025",
    "pinyin": "yanshan",
    "abbreviation": "AOP"
  },
  {
    "name": "三合庄",
    "primary": false,
    "address": "北京市房山区张坊镇三合庄火车站",
    "owner": "北京铁路局",
    "category": "",
    "type": "乘降所",
    "province": "北京",
    "city": "房山区",
    "lng": "115.71283",
    "lat": "39.63589",
    "pinyin": "sanhezhuang",
    "abbreviation": "SVP"
  },
  {
    "name": "良各庄",
    "primary": false,
    "address": "北京市房山区周口店镇良各庄火车站",
    "owner": "北京铁路局",
    "category": "",
    "type": "乘降所",
    "province": "北京",
    "city": "房山区",
    "lng": "115.937506",
    "lat": "39.719189",
    "pinyin": "lianggezhuang",
    "abbreviation": "LGP"
  },
  {
    "name": "北京南",
    "primary": true,
    "address": "北京市丰台区车站路12号",
    "owner": "北京铁路局",
    "category": "",
    "type": "客运站",
    "province": "北京",
    "city": "丰台区",
    "lng": "116.379054",
    "lat": "39.864896",
    "pinyin": "beijingnan",
    "abbreviation": "VNP"
  },
  {
    "name": "大灰厂",
    "primary": false,
    "address": "北京市丰台区大灰厂村大灰厂火车站",
    "owner": "北京铁路局",
    "category": "",
    "type": "乘降所",
    "province": "北京",
    "city": "丰台区",
    "lng": "116.134049",
    "lat": "39.8596769999999",
    "pinyin": "dahuichang",
    "abbreviation": "DHP"
  },
  {
    "name": "北京西",
    "primary": true,
    "address": "北京市丰台区莲花池东路118号",
    "owner": "北京铁路局",
    "category": "",
    "type": "客运站",
    "province": "北京",
    "city": "丰台区",
    "lng": "116.321147999999",
    "lat": "39.894755",
    "pinyin": "beijingxi",
    "abbreviation": "BXP"
  },
  {
    "name": "清河",
    "primary": false,
    "address": "北京市海淀区清河火车站",
    "owner": "北京铁路局",
    "category": "",
    "type": "客运站",
    "province": "北京",
    "city": "海淀区",
    "lng": "116.315062",
    "lat": "40.041651",
    "pinyin": "qinghe",
    "abbreviation": "QIP"
  },
  {
    "name": "怀柔",
    "primary": false,
    "address": "北京市怀柔区府前东街1号",
    "owner": "北京铁路局",
    "category": "",
    "type": "客运站",
    "province": "北京",
    "city": "怀柔区",
    "lng": "116.648861",
    "lat": "40.3171",
    "pinyin": "huairou",
    "abbreviation": "HRP"
  },
  {
    "name": "怀柔北",
    "primary": true,
    "address": "北京市怀柔区怀柔北站",
    "owner": "北京铁路局",
    "category": "",
    "type": "客运站",
    "province": "北京",
    "city": "怀柔区",
    "lng": "116.692719",
    "lat": "40.4088089999999",
    "pinyin": "huairoubei",
    "abbreviation": "HBP"
  },
  {
    "name": "庙城",
    "primary": false,
    "address": "北京市怀柔区庙城镇庙城火车站",
    "owner": "北京铁路局",
    "category": "",
    "type": "乘降所",
    "province": "北京",
    "city": "怀柔区",
    "lng": "116.631421",
    "lat": "40.3011539999999",
    "pinyin": "miaocheng",
    "abbreviation": "MAP"
  },
  {
    "name": "北宅",
    "primary": false,
    "address": "北京市怀柔区桥梓镇北宅村",
    "owner": "北京铁路局",
    "category": "",
    "type": "乘降所",
    "province": "北京",
    "city": "怀柔区",
    "lng": "116.570563",
    "lat": "40.3433769999999",
    "pinyin": "beizhai",
    "abbreviation": "BVP"
  },
  {
    "name": "斜河涧",
    "primary": false,
    "address": "北京市门头沟区妙峰山斜河涧火车站",
    "owner": "北京铁路局",
    "category": "",
    "type": "乘降所",
    "province": "北京",
    "city": "门头沟区",
    "lng": "116.064616",
    "lat": "39.977927",
    "pinyin": "xiehejian",
    "abbreviation": "EEP"
  },
  {
    "name": "三家店",
    "primary": false,
    "address": "北京市门头沟区三家店火车站",
    "owner": "北京铁路局",
    "category": "",
    "type": "客运站",
    "province": "北京",
    "city": "门头沟区",
    "lng": "116.120502",
    "lat": "39.95018",
    "pinyin": "sanjiadian",
    "abbreviation": "ODP"
  },
  {
    "name": "安家庄",
    "primary": false,
    "address": "北京市门头沟区王平镇安家庄火车站",
    "owner": "北京铁路局",
    "category": "",
    "type": "乘降所",
    "province": "北京",
    "city": "门头沟区",
    "lng": "115.953993999999",
    "lat": "39.9976989999999"
  },
  {
    "name": "落坡岭",
    "primary": false,
    "address": "北京市门头沟区王平镇落坡岭火车站",
    "owner": "北京铁路局",
    "category": "",
    "type": "乘降所",
    "province": "北京",
    "city": "门头沟区",
    "lng": "115.986624",
    "lat": "39.987619",
    "pinyin": "luopoling",
    "abbreviation": "LPP"
  },
  {
    "name": "雁翅",
    "primary": false,
    "address": "北京市门头沟区雁翅镇雁翅火车站",
    "owner": "北京铁路局",
    "category": "",
    "type": "乘降所",
    "province": "北京",
    "city": "门头沟区",
    "lng": "115.89764",
    "lat": "40.035088",
    "pinyin": "yanchi",
    "abbreviation": "YAP"
  },
  {
    "name": "珠窝",
    "primary": false,
    "address": "北京市门头沟区雁翅镇珠窝火车站",
    "owner": "北京铁路局",
    "category": "",
    "type": "乘降所",
    "province": "北京",
    "city": "门头沟区",
    "lng": "115.802701",
    "lat": "40.057462",
    "pinyin": "zhuwo",
    "abbreviation": "ZOP"
  },
  {
    "name": "沿河城",
    "primary": false,
    "address": "北京市门头沟区斋堂镇沿河城火车站",
    "owner": "北京铁路局",
    "category": "",
    "type": "乘降所",
    "province": "北京",
    "city": "门头沟区",
    "lng": "115.726685",
    "lat": "40.1026209999999",
    "pinyin": "yanhecheng",
    "abbreviation": "YHP"
  },
  {
    "name": "密云",
    "primary": false,
    "address": "北京市密云县车站路1号",
    "owner": "北京铁路局",
    "category": "",
    "type": "客运站",
    "province": "北京",
    "city": "密云县",
    "lng": "116.853469",
    "lat": "40.395473"
  },
  {
    "name": "统军庄",
    "primary": false,
    "address": "北京市密云县十里堡镇统军庄村",
    "owner": "北京铁路局",
    "category": "",
    "type": "乘降所",
    "province": "北京",
    "city": "密云县",
    "lng": "116.753969",
    "lat": "40.343077",
    "pinyin": "tongjunzhuang",
    "abbreviation": "TZP"
  },
  {
    "name": "张辛",
    "primary": false,
    "address": "北京市顺义区李桥镇张辛火车站",
    "owner": "北京铁路局",
    "category": "",
    "type": "乘降所",
    "province": "北京",
    "city": "顺义区",
    "lng": "116.686269999999",
    "lat": "40.01221",
    "pinyin": "zhangxin",
    "abbreviation": "ZIP"
  },
  {
    "name": "高各庄",
    "primary": false,
    "address": "北京市顺义区牛栏山镇高各庄火车站",
    "owner": "北京铁路局",
    "category": "",
    "type": "乘降所",
    "province": "北京",
    "city": "怀柔区",
    "lng": "116.624818",
    "lat": "40.2589279999999",
    "pinyin": "gaogezhuang",
    "abbreviation": "GGP"
  },
  {
    "name": "顺义",
    "primary": false,
    "address": "北京市顺义区站前北街17号",
    "owner": "北京铁路局",
    "category": "",
    "type": "客运站",
    "province": "北京",
    "city": "顺义区",
    "lng": "116.645463",
    "lat": "40.125875",
    "pinyin": "shunyi",
    "abbreviation": "SOP"
  },
  {
    "name": "通州西",
    "primary": true,
    "address": "北京市通州区五里店西路11号",
    "owner": "北京铁路局",
    "category": "",
    "type": "客运站",
    "province": "北京",
    "city": "通州区",
    "lng": "116.627183",
    "lat": "39.9044239999999",
    "pinyin": "tongzhouxi",
    "abbreviation": "TAP"
  },
  {
    "name": "北京北",
    "primary": false,
    "address": "北京市西城区北滨河路1号",
    "owner": "北京铁路局",
    "category": "",
    "type": "客运站",
    "province": "北京",
    "city": "西城区",
    "lng": "116.35422",
    "lat": "39.9422679999999",
    "pinyin": "beijingbei",
    "abbreviation": "VAP"
  },
  {
    "name": "八达岭",
    "primary": false,
    "address": "北京市延庆县八达岭镇",
    "owner": "北京铁路局",
    "category": "",
    "type": "客运站",
    "province": "北京",
    "city": "延庆县",
    "lng": "115.996281999999",
    "lat": "40.358891",
    "pinyin": "badaling",
    "abbreviation": "ILP"
  },
  {
    "name": "延庆",
    "primary": false,
    "address": "北京市延庆县妫水南街59号",
    "owner": "北京铁路局",
    "category": "",
    "type": "客运站",
    "province": "北京",
    "city": "延庆县",
    "lng": "115.990967",
    "lat": "40.4739799999999",
    "pinyin": "yanqing",
    "abbreviation": "YNP"
  },
  {
    "name": "康庄",
    "primary": false,
    "address": "北京市延庆县康庄站",
    "owner": "北京铁路局",
    "category": "",
    "type": "客运站",
    "province": "北京",
    "city": "延庆县",
    "lng": "115.898507",
    "lat": "40.3799629999999",
    "pinyin": "kangzhuang",
    "abbreviation": "KZP"
  },
  {
    "name": "霸州",
    "primary": false,
    "address": "河北省霸州市迎宾路火车站",
    "owner": "北京铁路局",
    "category": "",
    "type": "客运站",
    "province": "河北",
    "city": "廊坊",
    "lng": "116.376222",
    "lat": "39.122846",
    "pinyin": "bazhou",
    "abbreviation": "RMP"
  },
  {
    "name": "保定东",
    "primary": false,
    "address": "河北省保定市东风东路高铁保定东站",
    "owner": "北京铁路局",
    "category": "",
    "type": "客运站",
    "province": "河北",
    "city": "保定",
    "lng": "115.60163",
    "lat": "38.8641459999999",
    "pinyin": "baodingdong",
    "abbreviation": "BMP"
  },
  {
    "name": "板城",
    "primary": false,
    "address": "河北省保定市涞水县赵各庄镇板城火车站",
    "owner": "北京铁路局",
    "category": "",
    "type": "乘降所",
    "province": "河北",
    "city": "保定",
    "lng": "115.256435",
    "lat": "39.614009",
    "pinyin": "bancheng",
    "abbreviation": "BUP"
  },
  {
    "name": "北屯",
    "primary": false,
    "address": "河北省保定市涞源县北屯火车站",
    "owner": "北京铁路局",
    "category": "",
    "type": "乘降所",
    "province": "新疆维吾尔自治区",
    "city": "阿勒泰",
    "lng": "87.7617889999999",
    "lat": "47.3231639999999",
    "pinyin": "beitun",
    "abbreviation": "BYP"
  },
  {
    "name": "保定",
    "primary": true,
    "address": "河北省保定市新华路118号",
    "owner": "北京铁路局",
    "category": "",
    "type": "客运站",
    "province": "河北",
    "city": "保定",
    "lng": "115.479882",
    "lat": "38.8634539999999",
    "pinyin": "baoding",
    "abbreviation": "BDP"
  },
  {
    "name": "徐水",
    "primary": false,
    "address": "河北省保定徐水县康明中路车站街12号",
    "owner": "北京铁路局",
    "category": "",
    "type": "客运站",
    "province": "河北",
    "city": "保定",
    "lng": "115.638217",
    "lat": "39.031429",
    "pinyin": "xushui",
    "abbreviation": "XSP"
  },
  {
    "name": "泊头",
    "primary": false,
    "address": "河北省泊头市胜利东路东端",
    "owner": "北京铁路局",
    "category": "",
    "type": "客运站",
    "province": "河北",
    "city": "沧州",
    "lng": "116.586507",
    "lat": "38.0616479999999",
    "pinyin": "botou",
    "abbreviation": "BZP"
  },
  {
    "name": "沧州西",
    "primary": true,
    "address": "河北省沧州市沧县北京路西端头",
    "owner": "北京铁路局",
    "category": "",
    "type": "客运站",
    "province": "河北",
    "city": "沧州",
    "lng": "116.767942",
    "lat": "38.3069279999999",
    "pinyin": "cangzhouxi",
    "abbreviation": "CBP"
  },
  {
    "name": "东光",
    "primary": false,
    "address": "河北省沧州市东光县观州路与建设大街交口",
    "owner": "北京铁路局",
    "category": "",
    "type": "客运站",
    "province": "河北",
    "city": "沧州",
    "lng": "116.537173",
    "lat": "37.898774",
    "pinyin": "dongguang",
    "abbreviation": "DGP"
  },
  {
    "name": "青县",
    "primary": false,
    "address": "河北省沧州市青县清州镇迎宾路72号",
    "owner": "北京铁路局",
    "category": "",
    "type": "客运站",
    "province": "河北",
    "city": "沧州",
    "lng": "116.838228",
    "lat": "38.577638",
    "pinyin": "qingxian",
    "abbreviation": "QXP"
  },
  {
    "name": "肃宁",
    "primary": false,
    "address": "河北省沧州市肃宁县站前街",
    "owner": "北京铁路局",
    "category": "",
    "type": "客运站",
    "province": "河北",
    "city": "沧州",
    "lng": "115.849967",
    "lat": "38.4150739999999",
    "pinyin": "suning",
    "abbreviation": "SYP"
  },
  {
    "name": "沧州",
    "primary": false,
    "address": "河北省沧州市新华区新华东路2号",
    "owner": "北京铁路局",
    "category": "",
    "type": "客运站",
    "province": "河北",
    "city": "沧州",
    "lng": "116.877566",
    "lat": "38.3092359999999",
    "pinyin": "cangzhou",
    "abbreviation": "COP"
  },
  {
    "name": "高寺台",
    "primary": false,
    "address": "河北省承德市承德县高寺台镇营房村",
    "owner": "北京铁路局",
    "category": "",
    "type": "乘降所",
    "province": "河北",
    "city": "沧州",
    "lng": "117.963552",
    "lat": "41.159951"
  },
  {
    "name": "永和",
    "primary": false,
    "address": "河北省承德市承德县甲山镇松挠沟门村",
    "owner": "北京铁路局",
    "category": "",
    "type": "乘降所",
    "province": "河北",
    "city": "承德",
    "lng": "118.351094",
    "lat": "40.7784979999999"
  },
  {
    "name": "甲山",
    "primary": false,
    "address": "河北省承德市承德县甲山镇武场村",
    "owner": "北京铁路局",
    "category": "",
    "type": "乘降所",
    "province": "河北",
    "city": "承德",
    "lng": "118.265047",
    "lat": "40.7887679999999",
    "pinyin": "jiashan",
    "abbreviation": "JOP"
  },
  {
    "name": "南湾子",
    "primary": false,
    "address": "河北省承德市承德县刘杖子乡二道营村",
    "owner": "北京铁路局",
    "category": "",
    "type": "乘降所",
    "province": "河北",
    "city": "承德",
    "lng": "117.81973",
    "lat": "40.7302469999999",
    "pinyin": "nanwanzi",
    "abbreviation": "NWP"
  },
  {
    "name": "大杖子",
    "primary": false,
    "address": "河北省承德市承德县上谷乡屈家沟村",
    "owner": "北京铁路局",
    "category": "",
    "type": "乘降所",
    "province": "河北",
    "city": "承德",
    "lng": "118.549993",
    "lat": "40.8514509999999",
    "pinyin": "dazhangzi",
    "abbreviation": "DAP"
  },
  {
    "name": "新杖子",
    "primary": false,
    "address": "河北省承德市承德县新杖子村新达胡同1号",
    "owner": "北京铁路局",
    "category": "",
    "type": "客运站",
    "province": "河北",
    "city": "承德",
    "lng": "118.338629",
    "lat": "40.878753",
    "pinyin": "xinzhangzi",
    "abbreviation": "ERP"
  },
  {
    "name": "上板城南",
    "primary": false,
    "address": "河北省承德市开发新区上板城镇",
    "owner": "北京铁路局",
    "category": "",
    "type": "客运站",
    "province": "河北",
    "city": "承德",
    "lng": "118.047459",
    "lat": "40.8252719999999",
    "pinyin": "shangbanchengnan",
    "abbreviation": "OBP"
  },
  {
    "name": "隆化",
    "primary": false,
    "address": "河北省承德市隆化县北安路8号",
    "owner": "北京铁路局",
    "category": "",
    "type": "客运站",
    "province": "河北",
    "city": "承德",
    "lng": "117.751064",
    "lat": "41.3287619999999",
    "pinyin": "longhua",
    "abbreviation": "UHP"
  },
  {
    "name": "韩麻营",
    "primary": false,
    "address": "河北省承德市隆化县韩麻营镇十八里汰村",
    "owner": "北京铁路局",
    "category": "",
    "type": "乘降所",
    "province": "河北",
    "city": "承德",
    "lng": "117.841663999999",
    "lat": "41.278117",
    "pinyin": "hanmaying",
    "abbreviation": "HYP"
  },
  {
    "name": "超梁沟",
    "primary": false,
    "address": "河北省承德市隆化县隆化镇超梁沟村",
    "owner": "北京铁路局",
    "category": "",
    "type": "乘降所",
    "province": "河北",
    "city": "承德",
    "lng": "117.696423999999",
    "lat": "41.2336299999999",
    "pinyin": "chaolianggou",
    "abbreviation": "CYP"
  },
  {
    "name": "闹海营",
    "primary": false,
    "address": "河北省承德市隆化县隆化镇闹海营村",
    "owner": "北京铁路局",
    "category": "",
    "type": "乘降所",
    "province": "河北",
    "city": "承德",
    "lng": "117.717051",
    "lat": "41.294443"
  },
  {
    "name": "五道河",
    "primary": false,
    "address": "河北省承德市滦平县安纯沟门乡五道河村平甸子自然村",
    "owner": "北京铁路局",
    "category": "",
    "type": "乘降所",
    "province": "河北",
    "city": "承德",
    "lng": "117.065948",
    "lat": "40.894088",
    "pinyin": "wudaohe",
    "abbreviation": "WHP"
  },
  {
    "name": "二道沟门",
    "primary": false,
    "address": "河北省承德市滦平县安纯沟门乡小白旗村",
    "owner": "北京铁路局",
    "category": "",
    "type": "乘降所",
    "province": "河北",
    "city": "承德",
    "lng": "117.151363",
    "lat": "40.8866179999999",
    "pinyin": "erdaogoumen",
    "abbreviation": "RDP"
  },
  {
    "name": "流水沟",
    "primary": false,
    "address": "河北省承德市滦平县巴克什营镇流水沟村",
    "owner": "北京铁路局",
    "category": "",
    "type": "乘降所",
    "province": "河北",
    "city": "承德",
    "lng": "117.145512",
    "lat": "40.7067229999999",
    "pinyin": "liushuigou",
    "abbreviation": "USP"
  },
  {
    "name": "窑上",
    "primary": false,
    "address": "河北省承德市滦平县大屯乡大屯村",
    "owner": "北京铁路局",
    "category": "",
    "type": "乘降所",
    "province": "河北",
    "city": "承德",
    "lng": "117.408626",
    "lat": "40.984166",
    "pinyin": "yaoshang",
    "abbreviation": "ASP"
  },
  {
    "name": "白旗",
    "primary": false,
    "address": "河北省承德市滦平县红旗镇北白旗村",
    "owner": "北京铁路局",
    "category": "",
    "type": "乘降所",
    "province": "河北",
    "city": "承德",
    "lng": "117.672244",
    "lat": "41.158852",
    "pinyin": "baiqi",
    "abbreviation": "BQP"
  },
  {
    "name": "梁底下",
    "primary": false,
    "address": "河北省承德市滦平县红旗镇桥头村",
    "owner": "北京铁路局",
    "category": "",
    "type": "乘降所",
    "province": "河北",
    "city": "承德",
    "lng": "117.625721",
    "lat": "41.108235",
    "pinyin": "liangdixia",
    "abbreviation": "LDP"
  },
  {
    "name": "猴山",
    "primary": false,
    "address": "河北省承德市滦平县虎什哈镇猴山村",
    "owner": "北京铁路局",
    "category": "",
    "type": "乘降所",
    "province": "河北",
    "city": "承德",
    "lng": "117.029415",
    "lat": "40.8158219999999"
  },
  {
    "name": "虎什哈",
    "primary": false,
    "address": "河北省承德市滦平县虎什哈镇三道河村",
    "owner": "北京铁路局",
    "category": "",
    "type": "乘降所",
    "province": "河北",
    "city": "承德",
    "lng": "116.990666",
    "lat": "40.8611289999999",
    "pinyin": "hushiha",
    "abbreviation": "HHP"
  },
  {
    "name": "金沟屯",
    "primary": false,
    "address": "河北省承德市滦平县金沟屯镇东村",
    "owner": "北京铁路局",
    "category": "",
    "type": "乘降所",
    "province": "河北",
    "city": "承德",
    "lng": "117.516976",
    "lat": "41.0593599999999",
    "pinyin": "jingoutun",
    "abbreviation": "VGP"
  },
  {
    "name": "滦河沿",
    "primary": false,
    "address": "河北省承德市滦平县金钩屯镇滦河沿村",
    "owner": "北京铁路局",
    "category": "",
    "type": "乘降所",
    "province": "河北",
    "city": "承德",
    "lng": "117.543978",
    "lat": "41.079509",
    "pinyin": "luanheyan",
    "abbreviation": "UNP"
  },
  {
    "name": "南大庙",
    "primary": false,
    "address": "河北省承德市滦平县马营子乡南大庙村",
    "owner": "北京铁路局",
    "category": "",
    "type": "乘降所",
    "province": "河北",
    "city": "承德",
    "lng": "117.070730999999",
    "lat": "40.7712429999999",
    "pinyin": "nandamiao",
    "abbreviation": "NMP"
  },
  {
    "name": "平坊",
    "primary": false,
    "address": "河北省承德市滦平县平坊乡下洼子村",
    "owner": "北京铁路局",
    "category": "",
    "type": "乘降所",
    "province": "河北",
    "city": "承德",
    "lng": "117.243084",
    "lat": "40.8930209999999"
  },
  {
    "name": "张百湾",
    "primary": false,
    "address": "河北省承德市滦平县张百湾镇河北村",
    "owner": "北京铁路局",
    "category": "",
    "type": "乘降所",
    "province": "河北",
    "city": "承德",
    "lng": "117.482273",
    "lat": "40.9993309999999",
    "pinyin": "zhangbaiwan",
    "abbreviation": "ZUP"
  },
  {
    "name": "滦平",
    "primary": false,
    "address": "河北省承德市滦平县振兴路西侧164号",
    "owner": "北京铁路局",
    "category": "",
    "type": "客运站",
    "province": "河北",
    "city": "承德",
    "lng": "117.316674",
    "lat": "40.9234129999999",
    "pinyin": "luanping",
    "abbreviation": "UPP"
  },
  {
    "name": "平泉",
    "primary": true,
    "address": "河北省承德市平泉县东方街",
    "owner": "北京铁路局",
    "category": "",
    "type": "客运站",
    "province": "河北",
    "city": "承德",
    "lng": "118.699887",
    "lat": "40.999867",
    "pinyin": "pingquan",
    "abbreviation": "PQP"
  },
  {
    "name": "小寺沟",
    "primary": false,
    "address": "河北省承德市平泉县南五十家子镇",
    "owner": "北京铁路局",
    "category": "",
    "type": "客运站",
    "province": "河北",
    "city": "承德",
    "lng": "118.645786",
    "lat": "40.8998279999999",
    "pinyin": "xiaosigou",
    "abbreviation": "ESP"
  },
  {
    "name": "承德",
    "primary": true,
    "address": "河北省承德市双桥区车站路235号",
    "owner": "北京铁路局",
    "category": "",
    "type": "客运站",
    "province": "河北",
    "city": "承德",
    "lng": "117.954476",
    "lat": "40.9652949999999",
    "pinyin": "chengde",
    "abbreviation": "CDP"
  },
  {
    "name": "上板城",
    "primary": false,
    "address": "河北省承德市双桥区开发新区卸甲营村",
    "owner": "北京铁路局",
    "category": "",
    "type": "客运站",
    "province": "河北",
    "city": "承德",
    "lng": "118.058046",
    "lat": "40.8383299999999",
    "pinyin": "shangbancheng",
    "abbreviation": "SBP"
  },
  {
    "name": "西大庙",
    "primary": false,
    "address": "河北省承德市双桥区上板城镇西大庙村",
    "owner": "北京铁路局",
    "category": "",
    "type": "乘降所",
    "province": "河北",
    "city": "承德",
    "lng": "117.96782",
    "lat": "40.8050059999999",
    "pinyin": "xidamiao",
    "abbreviation": "XMP"
  },
  {
    "name": "双峰寺",
    "primary": false,
    "address": "河北省承德市双桥区双峰寺镇三道河村",
    "owner": "北京铁路局",
    "category": "",
    "type": "乘降所",
    "province": "河北",
    "city": "承德",
    "lng": "117.971408999999",
    "lat": "41.048346"
  },
  {
    "name": "黄土坎",
    "primary": false,
    "address": "河北省承德市双桥区双峰寺镇西坎村",
    "owner": "北京铁路局",
    "category": "",
    "type": "乘降所",
    "province": "河北",
    "city": "承德",
    "lng": "120.798070999999",
    "lat": "41.072127"
  },
  {
    "name": "承德东",
    "primary": false,
    "address": "河北省承德市双桥区太平庄村",
    "owner": "北京铁路局",
    "category": "",
    "type": "乘降所",
    "province": "河北",
    "city": "承德",
    "lng": "117.990262",
    "lat": "40.889163",
    "pinyin": "chengdedong",
    "abbreviation": "CCP"
  },
  {
    "name": "洞庙河",
    "primary": false,
    "address": "河北省承德市兴隆县北营房镇姚栅子村",
    "owner": "北京铁路局",
    "category": "",
    "type": "乘降所",
    "province": "河北",
    "city": "承德",
    "lng": "117.694759",
    "lat": "40.571601",
    "pinyin": "dongmiaohe",
    "abbreviation": "DEP"
  },
  {
    "name": "潘家店",
    "primary": false,
    "address": "河北省承德市兴隆县李家营乡栾家店村",
    "owner": "北京铁路局",
    "category": "",
    "type": "乘降所",
    "province": "河北",
    "city": "承德",
    "lng": "117.817126",
    "lat": "40.67418",
    "pinyin": "panjiadian",
    "abbreviation": "PDP"
  },
  {
    "name": "下台子",
    "primary": false,
    "address": "河北省承德市兴隆县李家营乡下台子站",
    "owner": "北京铁路局",
    "category": "",
    "type": "客运站",
    "province": "河北",
    "city": "承德",
    "lng": "117.741225",
    "lat": "40.6030939999999",
    "pinyin": "xiataizi",
    "abbreviation": "EIP"
  },
  {
    "name": "六道河子",
    "primary": false,
    "address": "河北省承德市兴隆县六道河镇五道河村",
    "owner": "北京铁路局",
    "category": "",
    "type": "乘降所",
    "province": "河北",
    "city": "承德",
    "lng": "117.315948",
    "lat": "40.395893",
    "pinyin": "liudaohezi",
    "abbreviation": "LVP"
  },
  {
    "name": "兴隆县",
    "primary": true,
    "address": "河北省承德市兴隆县雾灵街",
    "owner": "北京铁路局",
    "category": "",
    "type": "客运站",
    "province": "河北",
    "city": "承德",
    "lng": "117.514121",
    "lat": "40.437154",
    "pinyin": "xinglongxian",
    "abbreviation": "EXP"
  },
  {
    "name": "鹰手营子",
    "primary": false,
    "address": "河北省承德市鹰手营子矿区",
    "owner": "北京铁路局",
    "category": "",
    "type": "客运站",
    "province": "河北",
    "city": "承德",
    "lng": "117.669298",
    "lat": "40.55568",
    "pinyin": "yingshouyingzi",
    "abbreviation": "YIP"
  },
  {
    "name": "榆树沟",
    "primary": false,
    "address": "河北省承德县甲山镇皇庄村",
    "owner": "北京铁路局",
    "category": "",
    "type": "乘降所",
    "province": "河北",
    "city": "承德",
    "lng": "118.404850999999",
    "lat": "40.7857089999999",
    "pinyin": "yushugou",
    "abbreviation": "YGP"
  },
  {
    "name": "上谷",
    "primary": false,
    "address": "河北省承德县上谷乡",
    "owner": "北京铁路局",
    "category": "",
    "type": "乘降所",
    "province": "河北",
    "city": "承德",
    "lng": "118.480765",
    "lat": "40.796135"
  },
  {
    "name": "下板城",
    "primary": false,
    "address": "河北省承德县下板城镇车站路1号",
    "owner": "北京铁路局",
    "category": "",
    "type": "客运站",
    "province": "河北",
    "city": "承德",
    "lng": "118.176748",
    "lat": "40.7741869999999",
    "pinyin": "xiabancheng",
    "abbreviation": "EBP"
  },
  {
    "name": "磁县",
    "primary": false,
    "address": "河北省磁县友谊路2号",
    "owner": "北京铁路局",
    "category": "",
    "type": "客运站",
    "province": "河北",
    "city": "邯郸",
    "lng": "114.372906",
    "lat": "36.360387",
    "pinyin": "cixian",
    "abbreviation": "CIP"
  },
  {
    "name": "定州",
    "primary": false,
    "address": "河北省定州市博陵北街62号",
    "owner": "北京铁路局",
    "category": "",
    "type": "客运站",
    "province": "河北",
    "city": "保定",
    "lng": "114.973517",
    "lat": "38.5299369999999",
    "pinyin": "dingzhou",
    "abbreviation": "DXP"
  },
  {
    "name": "定州东",
    "primary": false,
    "address": "河北省定州市杨家乡小渡河村",
    "owner": "北京铁路局",
    "category": "",
    "type": "客运站",
    "province": "河北",
    "city": "保定",
    "lng": "115.07576",
    "lat": "38.508882",
    "pinyin": "dingzhoudong",
    "abbreviation": "DOP"
  },
  {
    "name": "高碑店东",
    "primary": false,
    "address": "河北省高碑店市方官镇庄夥村兴隆大街高碑店东站",
    "owner": "北京铁路局",
    "category": "",
    "type": "客运站",
    "province": "河北",
    "city": "保定",
    "lng": "115.945041",
    "lat": "39.289054",
    "pinyin": "gaobeidiandong",
    "abbreviation": "GMP"
  },
  {
    "name": "高碑店",
    "primary": false,
    "address": "河北省高碑店市迎宾路1号",
    "owner": "北京铁路局",
    "category": "",
    "type": "客运站",
    "province": "河北",
    "city": "保定",
    "lng": "115.858912",
    "lat": "39.3287139999999",
    "pinyin": "gaobeidian",
    "abbreviation": "GBP"
  },
  {
    "name": "和村",
    "primary": false,
    "address": "河北省邯郸市峰峰矿区和村镇柏泗村",
    "owner": "北京铁路局",
    "category": "",
    "type": "乘降所",
    "province": "河北",
    "city": "邯郸",
    "lng": "114.123268999999",
    "lat": "36.556621"
  },
  {
    "name": "临水",
    "primary": false,
    "address": "河北省邯郸市峰峰矿区临水镇",
    "owner": "北京铁路局",
    "category": "",
    "type": "乘降所",
    "province": "河北",
    "city": "邯郸",
    "lng": "114.236679",
    "lat": "36.433573"
  },
  {
    "name": "新坡",
    "primary": false,
    "address": "河北省邯郸市峰峰矿区新坡镇",
    "owner": "北京铁路局",
    "category": "",
    "type": "乘降所",
    "province": "河北",
    "city": "邯郸",
    "lng": "114.295152",
    "lat": "36.470925"
  },
  {
    "name": "邯郸东",
    "primary": true,
    "address": "河北省邯郸市高开区高铁邯郸东站",
    "owner": "北京铁路局",
    "category": "",
    "type": "客运站",
    "province": "河北",
    "city": "邯郸",
    "lng": "114.559179",
    "lat": "36.62012",
    "pinyin": "handandong",
    "abbreviation": "HPP"
  },
  {
    "name": "邯郸",
    "primary": true,
    "address": "河北省邯郸市邯山区车站街2号",
    "owner": "北京铁路局",
    "category": "",
    "type": "客运站",
    "province": "河北",
    "city": "邯郸",
    "lng": "114.476688999999",
    "lat": "36.6033919999999",
    "pinyin": "handan",
    "abbreviation": "HDP"
  },
  {
    "name": "涉县",
    "primary": false,
    "address": "河北省邯郸市涉县迎宾街",
    "owner": "北京铁路局",
    "category": "",
    "type": "客运站",
    "province": "河北",
    "city": "邯郸",
    "lng": "113.668269",
    "lat": "36.57721",
    "pinyin": "shexian",
    "abbreviation": "OEP"
  },
  {
    "name": "前磨头",
    "primary": false,
    "address": "河北省衡水深州市前磨头镇商业街南头",
    "owner": "北京铁路局",
    "category": "",
    "type": "客运站",
    "province": "河北",
    "city": "衡水",
    "lng": "115.492687",
    "lat": "37.7959129999999",
    "pinyin": "qianmotou",
    "abbreviation": "QMP"
  },
  {
    "name": "深州",
    "primary": false,
    "address": "河北省衡水深州市桃源大街1号",
    "owner": "北京铁路局",
    "category": "",
    "type": "客运站",
    "province": "河北",
    "city": "衡水",
    "lng": "115.61317",
    "lat": "38.011437",
    "pinyin": "shenzhou",
    "abbreviation": "OZP"
  },
  {
    "name": "龙华",
    "primary": false,
    "address": "河北省衡水市景县龙华镇衡德路北",
    "owner": "北京铁路局",
    "category": "",
    "type": "客运站",
    "province": "河北",
    "city": "衡水",
    "lng": "116.022788",
    "lat": "37.611769",
    "pinyin": "longhua",
    "abbreviation": "LHP"
  },
  {
    "name": "饶阳",
    "primary": false,
    "address": "河北省衡水市饶阳县富强街186号",
    "owner": "北京铁路局",
    "category": "",
    "type": "客运站",
    "province": "河北",
    "city": "衡水",
    "lng": "115.717608",
    "lat": "38.237431",
    "pinyin": "raoyang",
    "abbreviation": "RVP"
  },
  {
    "name": "衡水",
    "primary": true,
    "address": "河北省衡水市桃城区中心街1号",
    "owner": "北京铁路局",
    "category": "",
    "type": "客运站",
    "province": "河北",
    "city": "衡水",
    "lng": "115.690906",
    "lat": "37.7441389999999",
    "pinyin": "hengshui",
    "abbreviation": "HSP"
  },
  {
    "name": "大营镇",
    "primary": false,
    "address": "河北省衡水市枣强县大营镇站前街",
    "owner": "北京铁路局",
    "category": "",
    "type": "客运站",
    "province": "河北",
    "city": "衡水",
    "lng": "115.735326",
    "lat": "37.318489",
    "pinyin": "dayingzhen",
    "abbreviation": "DJP"
  },
  {
    "name": "枣强",
    "primary": false,
    "address": "河北省衡水市枣强县富强路中段",
    "owner": "北京铁路局",
    "category": "",
    "type": "客运站",
    "province": "河北",
    "city": "衡水",
    "lng": "115.738577",
    "lat": "37.504724",
    "pinyin": "zaoqiang",
    "abbreviation": "ZVP"
  },
  {
    "name": "上安",
    "primary": false,
    "address": "河北省井陉县上安西村",
    "owner": "北京铁路局",
    "category": "",
    "type": "乘降所",
    "province": "河北",
    "city": "保定",
    "lng": "114.199943",
    "lat": "38.060834"
  },
  {
    "name": "南张村",
    "primary": false,
    "address": "河北省井陉县秀林镇南张村",
    "owner": "北京铁路局",
    "category": "",
    "type": "乘降所",
    "province": "河北",
    "city": "保定",
    "lng": "114.065136999999",
    "lat": "37.996186"
  },
  {
    "name": "百里峡",
    "primary": false,
    "address": "河北省涞水县九龙镇苟各庄村",
    "owner": "北京铁路局",
    "category": "",
    "type": "客运站",
    "province": "河北",
    "city": "保定",
    "lng": "115.39404",
    "lat": "39.683492",
    "pinyin": "bailixia",
    "abbreviation": "AAP"
  },
  {
    "name": "野三坡",
    "primary": false,
    "address": "河北省涞水县野三坡镇",
    "owner": "北京铁路局",
    "category": "",
    "type": "客运站",
    "province": "河北",
    "city": "保定",
    "lng": "115.453948",
    "lat": "39.6709979999999",
    "pinyin": "yesanpo",
    "abbreviation": "AIP"
  },
  {
    "name": "白涧",
    "primary": false,
    "address": "河北省涞水县赵各庄镇",
    "owner": "北京铁路局",
    "category": "",
    "type": "客运站",
    "province": "河北",
    "city": "保定",
    "lng": "115.289725",
    "lat": "39.6461839999999",
    "pinyin": "baijian",
    "abbreviation": "BAP"
  },
  {
    "name": "福山口",
    "primary": false,
    "address": "河北省涞水县赵各庄镇福山口火车站",
    "owner": "北京铁路局",
    "category": "",
    "type": "乘降所",
    "province": "河北",
    "city": "保定",
    "lng": "115.341401",
    "lat": "39.6748559999999",
    "pinyin": "fushankou",
    "abbreviation": "FKP"
  },
  {
    "name": "艾河",
    "primary": false,
    "address": "河北省涞源县北石佛乡艾河村艾河火车站",
    "owner": "北京铁路局",
    "category": "",
    "type": "乘降所",
    "province": "河北",
    "city": "保定",
    "lng": "114.547821",
    "lat": "39.3937669999999",
    "pinyin": "aihe",
    "abbreviation": "AHP"
  },
  {
    "name": "小西庄",
    "primary": false,
    "address": "河北省涞源县城关镇小西庄火车站",
    "owner": "北京铁路局",
    "category": "",
    "type": "乘降所",
    "province": "河北",
    "city": "保定",
    "lng": "114.629285",
    "lat": "39.4020799999999",
    "pinyin": "xiaoxizhuang",
    "abbreviation": "XXP"
  },
  {
    "name": "浮图峪",
    "primary": false,
    "address": "河北省涞源县浮图峪村浮图峪火车站",
    "owner": "北京铁路局",
    "category": "",
    "type": "乘降所",
    "province": "河北",
    "city": "保定",
    "lng": "114.832949",
    "lat": "39.3667159999999",
    "pinyin": "futuyu",
    "abbreviation": "FYP"
  },
  {
    "name": "涞源",
    "primary": false,
    "address": "河北省涞源县涞源火车站",
    "owner": "北京铁路局",
    "category": "",
    "type": "客运站",
    "province": "河北",
    "city": "保定",
    "lng": "114.71163",
    "lat": "39.371611",
    "pinyin": "laiyuan",
    "abbreviation": "LYP"
  },
  {
    "name": "塔崖驿",
    "primary": false,
    "address": "河北省涞源县塔崖驿乡塔崖驿村塔崖驿火车站",
    "owner": "北京铁路局",
    "category": "",
    "type": "乘降所",
    "province": "河北",
    "city": "保定",
    "lng": "115.007754",
    "lat": "39.4297189999999",
    "pinyin": "tayayi",
    "abbreviation": "TYP"
  },
  {
    "name": "王安镇",
    "primary": false,
    "address": "河北省涞源县王安镇火车站",
    "owner": "北京铁路局",
    "category": "",
    "type": "乘降所",
    "province": "河北",
    "city": "保定",
    "lng": "114.946999",
    "lat": "39.4084629999999",
    "pinyin": "wanganzhen",
    "abbreviation": "WVP"
  },
  {
    "name": "三河县",
    "primary": false,
    "address": "河北省廊坊三河市居安小区府东路南",
    "owner": "北京铁路局",
    "category": "",
    "type": "客运站",
    "province": "河北",
    "city": "廊坊",
    "lng": "117.09884",
    "lat": "39.9789579999999",
    "pinyin": "sanhexian",
    "abbreviation": "OXP"
  },
  {
    "name": "燕郊",
    "primary": true,
    "address": "河北省廊坊三河市燕郊开发区京榆大街938号",
    "owner": "北京铁路局",
    "category": "",
    "type": "客运站",
    "province": "河北",
    "city": "廊坊",
    "lng": "116.825766",
    "lat": "39.941741",
    "pinyin": "yanjiao",
    "abbreviation": "AJP"
  },
  {
    "name": "廊坊",
    "primary": true,
    "address": "河北省廊坊市安次区常甫路北端",
    "owner": "北京铁路局",
    "category": "",
    "type": "客运站",
    "province": "河北",
    "city": "廊坊",
    "lng": "116.70873",
    "lat": "39.509501",
    "pinyin": "langfang",
    "abbreviation": "LJP"
  },
  {
    "name": "大厂县",
    "primary": false,
    "address": "河北省廊坊市大厂回族自治县夏垫镇",
    "owner": "北京铁路局",
    "category": "",
    "type": "乘降所",
    "province": "河北",
    "city": "廊坊",
    "lng": "116.916649",
    "lat": "39.951861"
  },
  {
    "name": "廊坊北",
    "primary": false,
    "address": "河北省廊坊市广阳区解放道55号",
    "owner": "北京铁路局",
    "category": "",
    "type": "客运站",
    "province": "河北",
    "city": "廊坊",
    "lng": "116.705753",
    "lat": "39.513164",
    "pinyin": "langfangbei",
    "abbreviation": "LFP"
  },
  {
    "name": "马柳",
    "primary": false,
    "address": "河北省迁安市太平庄乡",
    "owner": "北京铁路局",
    "category": "",
    "type": "乘降所",
    "province": "河北",
    "city": "唐山",
    "lng": "118.521423",
    "lat": "39.858794"
  },
  {
    "name": "滦河",
    "primary": false,
    "address": "河北省迁安市野鸡坨镇野鸡坨村",
    "owner": "北京铁路局",
    "category": "",
    "type": "客运站",
    "province": "河北",
    "city": "唐山",
    "lng": "118.671539999999",
    "lat": "39.8568459999999",
    "pinyin": "luanhe",
    "abbreviation": "UDP"
  },
  {
    "name": "北戴河",
    "primary": false,
    "address": "河北省秦皇岛市北戴河区站南大街54号",
    "owner": "北京铁路局",
    "category": "",
    "type": "客运站",
    "province": "河北",
    "city": "秦皇岛",
    "lng": "119.420096",
    "lat": "39.850926",
    "pinyin": "beidaihe",
    "abbreviation": "BEP"
  },
  {
    "name": "昌黎",
    "primary": false,
    "address": "河北省秦皇岛市昌黎县民生街南端",
    "owner": "北京铁路局",
    "category": "",
    "type": "客运站",
    "province": "河北",
    "city": "秦皇岛",
    "lng": "119.167823",
    "lat": "39.7044009999999",
    "pinyin": "changli",
    "abbreviation": "CLP"
  },
  {
    "name": "抚宁",
    "primary": false,
    "address": "河北省秦皇岛市抚宁县迎宾路与102国道交叉环岛北200米铁工小区",
    "owner": "北京铁路局",
    "category": "",
    "type": "客运站",
    "province": "河北",
    "city": "秦皇岛",
    "lng": "119.249191",
    "lat": "39.8935469999999",
    "pinyin": "funing",
    "abbreviation": "FNP"
  },
  {
    "name": "卢龙",
    "primary": false,
    "address": "河北省秦皇岛市卢龙县印庄乡政府北700米",
    "owner": "北京铁路局",
    "category": "",
    "type": "客运站",
    "province": "河北",
    "city": "秦皇岛",
    "lng": "118.983571",
    "lat": "39.952261",
    "pinyin": "lulong",
    "abbreviation": "UAP"
  },
  {
    "name": "任丘",
    "primary": false,
    "address": "河北省任丘市渤海路1号",
    "owner": "北京铁路局",
    "category": "",
    "type": "客运站",
    "province": "河北",
    "city": "沧州",
    "lng": "116.144326",
    "lat": "38.69426",
    "pinyin": "renqiu",
    "abbreviation": "RQP"
  },
  {
    "name": "段甲岭",
    "primary": false,
    "address": "河北省三河市段甲岭镇",
    "owner": "北京铁路局",
    "category": "",
    "type": "乘降所",
    "province": "河北",
    "city": "沧州",
    "lng": "117.168769",
    "lat": "39.986082"
  },
  {
    "name": "三平",
    "primary": false,
    "address": "河北省三河市李旗庄镇",
    "owner": "北京铁路局",
    "category": "",
    "type": "乘降所",
    "province": "河北",
    "city": "沧州",
    "lng": "116.996972",
    "lat": "39.96175"
  },
  {
    "name": "沙河市",
    "primary": true,
    "address": "河北省沙河市白云路12号",
    "owner": "北京铁路局",
    "category": "",
    "type": "客运站",
    "province": "河北",
    "city": "邢台",
    "lng": "114.497629",
    "lat": "36.861134",
    "pinyin": "shaheshi",
    "abbreviation": "VOP"
  },
  {
    "name": "井店",
    "primary": false,
    "address": "河北省涉县井店镇下庄",
    "owner": "北京铁路局",
    "category": "",
    "type": "客运站",
    "province": "河北",
    "city": "邯郸",
    "lng": "113.722573",
    "lat": "36.6049569999999",
    "pinyin": "jingdian",
    "abbreviation": "JFP"
  },
  {
    "name": "豆庄",
    "primary": false,
    "address": "河北省涉县木井乡豆庄村",
    "owner": "北京铁路局",
    "category": "",
    "type": "乘降所",
    "province": "河北",
    "city": "邯郸",
    "lng": "113.847019",
    "lat": "36.72974",
    "pinyin": "douzhuang",
    "abbreviation": "ROP"
  },
  {
    "name": "偏店",
    "primary": false,
    "address": "河北省涉县偏店乡",
    "owner": "北京铁路局",
    "category": "",
    "type": "乘降所",
    "province": "河北",
    "city": "邯郸",
    "lng": "113.754052",
    "lat": "36.646351",
    "pinyin": "piandian",
    "abbreviation": "PRP"
  },
  {
    "name": "悬钟",
    "primary": false,
    "address": "河北省涉县索堡镇悬钟村",
    "owner": "北京铁路局",
    "category": "",
    "type": "乘降所",
    "province": "河北",
    "city": "邯郸",
    "lng": "113.578129",
    "lat": "36.6600979999999",
    "pinyin": "xuanzhong",
    "abbreviation": "XRP"
  },
  {
    "name": "良村",
    "primary": false,
    "address": "河北省石家庄藁城市良村火车站",
    "owner": "北京铁路局",
    "category": "",
    "type": "乘降所",
    "province": "河北",
    "city": "石家庄",
    "lng": "114.67403",
    "lat": "38.04075"
  },
  {
    "name": "藁城",
    "primary": false,
    "address": "河北省石家庄藁城市迎宾大道西25号",
    "owner": "北京铁路局",
    "category": "",
    "type": "客运站",
    "province": "河北",
    "city": "石家庄",
    "lng": "114.83249",
    "lat": "38.0280759999999",
    "pinyin": "gaocheng",
    "abbreviation": "GEP"
  },
  {
    "name": "晋州",
    "primary": false,
    "address": "河北省石家庄晋州市沧石路南光明街1号",
    "owner": "北京铁路局",
    "category": "",
    "type": "客运站",
    "province": "河北",
    "city": "石家庄",
    "lng": "115.032216",
    "lat": "38.0212179999999",
    "pinyin": "jinzhou",
    "abbreviation": "JXP"
  },
  {
    "name": "高邑",
    "primary": false,
    "address": "河北省石家庄市高邑县凤中路新建大街53号",
    "owner": "北京铁路局",
    "category": "",
    "type": "客运站",
    "province": "河北",
    "city": "石家庄",
    "lng": "114.597613999999",
    "lat": "37.604959",
    "pinyin": "gaoyi",
    "abbreviation": "GIP"
  },
  {
    "name": "高邑西",
    "primary": false,
    "address": "河北省石家庄市高邑县站前街1号",
    "owner": "北京铁路局",
    "category": "",
    "type": "客运站",
    "province": "河北",
    "city": "石家庄",
    "lng": "114.531538",
    "lat": "37.629868",
    "pinyin": "gaoyixi",
    "abbreviation": "GNP"
  },
  {
    "name": "南峪",
    "primary": false,
    "address": "河北省石家庄市井陉县南峪镇",
    "owner": "北京铁路局",
    "category": "",
    "type": "客运站",
    "province": "河北",
    "city": "石家庄",
    "lng": "113.937737",
    "lat": "37.990149",
    "pinyin": "nanyu",
    "abbreviation": "NUP"
  },
  {
    "name": "井南",
    "primary": false,
    "address": "河北省石家庄市井陉县天长镇",
    "owner": "北京铁路局",
    "category": "",
    "type": "客运站",
    "province": "河北",
    "city": "石家庄",
    "lng": "114.023998",
    "lat": "37.998485",
    "pinyin": "jingnan",
    "abbreviation": "JNP"
  },
  {
    "name": "井陉",
    "primary": false,
    "address": "河北省石家庄市井陉县微水镇",
    "owner": "北京铁路局",
    "category": "",
    "type": "客运站",
    "province": "河北",
    "city": "石家庄",
    "lng": "114.137398",
    "lat": "38.034812",
    "pinyin": "jingxing",
    "abbreviation": "JJP"
  },
  {
    "name": "石家庄",
    "primary": true,
    "address": "河北省石家庄市桥西区京广西街",
    "owner": "北京铁路局",
    "category": "",
    "type": "客运站",
    "province": "河北",
    "city": "石家庄",
    "lng": "114.48447",
    "lat": "38.010514",
    "pinyin": "shijiazhuang",
    "abbreviation": "SJP"
  },
  {
    "name": "石家庄北",
    "primary": true,
    "address": "河北省石家庄市新华区市庄路265号",
    "owner": "北京铁路局",
    "category": "",
    "type": "客运站",
    "province": "河北",
    "city": "石家庄",
    "lng": "114.465388",
    "lat": "38.0661289999999",
    "pinyin": "shijiazhuangbei",
    "abbreviation": "VVP"
  },
  {
    "name": "元氏",
    "primary": false,
    "address": "河北省石家庄市元氏县站西路26号",
    "owner": "北京铁路局",
    "category": "",
    "type": "客运站",
    "province": "河北",
    "city": "石家庄",
    "lng": "114.544407",
    "lat": "37.759504",
    "pinyin": "yuanshi",
    "abbreviation": "YSP"
  },
  {
    "name": "正定机场",
    "primary": false,
    "address": "河北省石家庄市正定县新城铺镇合家庄村东正定机场站",
    "owner": "北京铁路局",
    "category": "",
    "type": "客运站",
    "province": "河北",
    "city": "石家庄",
    "lng": "114.71153",
    "lat": "38.2526039999999",
    "pinyin": "zhengdingjichang",
    "abbreviation": "ZHP"
  },
  {
    "name": "迁安",
    "primary": false,
    "address": "河北省唐山迁安市城南油井西400米",
    "owner": "北京铁路局",
    "category": "",
    "type": "客运站",
    "province": "河北",
    "city": "唐山",
    "lng": "118.693033",
    "lat": "39.92625",
    "pinyin": "qianan",
    "abbreviation": "QQP"
  },
  {
    "name": "富庄子",
    "primary": false,
    "address": "河北省唐山市丰润区沙流河镇",
    "owner": "北京铁路局",
    "category": "",
    "type": "乘降所",
    "province": "河北",
    "city": "唐山",
    "lng": "117.930537",
    "lat": "39.842182"
  },
  {
    "name": "唐山北",
    "primary": false,
    "address": "河北省唐山市丰润区迎宾路1号",
    "owner": "北京铁路局",
    "category": "",
    "type": "客运站",
    "province": "河北",
    "city": "唐山",
    "lng": "118.119479",
    "lat": "39.817058",
    "pinyin": "tangshanbei",
    "abbreviation": "FUP"
  },
  {
    "name": "唐山",
    "primary": true,
    "address": "河北省唐山市路北区站前路160号",
    "owner": "北京铁路局",
    "category": "",
    "type": "客运站",
    "province": "河北",
    "city": "唐山",
    "lng": "118.120189",
    "lat": "39.6257",
    "pinyin": "tangshan",
    "abbreviation": "TSP"
  },
  {
    "name": "杨各庄",
    "primary": false,
    "address": "河北省唐山市滦县雷庄镇",
    "owner": "北京铁路局",
    "category": "",
    "type": "乘降所",
    "province": "河北",
    "city": "唐山",
    "lng": "118.597488",
    "lat": "39.804855"
  },
  {
    "name": "福山寺",
    "primary": false,
    "address": "河北省唐山市滦县五店子镇",
    "owner": "北京铁路局",
    "category": "",
    "type": "乘降所",
    "province": "河北",
    "city": "唐山",
    "lng": "118.42986",
    "lat": "39.8761"
  },
  {
    "name": "滦县",
    "primary": false,
    "address": "河北省唐山市滦县新城燕山大街205国道北",
    "owner": "北京铁路局",
    "category": "",
    "type": "客运站",
    "province": "河北",
    "city": "唐山",
    "lng": "118.706076",
    "lat": "39.757716",
    "pinyin": "luanxian",
    "abbreviation": "UXP"
  },
  {
    "name": "狼窝铺",
    "primary": false,
    "address": "河北省唐山市滦县榛子镇",
    "owner": "北京铁路局",
    "category": "",
    "type": "乘降所",
    "province": "河北",
    "city": "唐山",
    "lng": "118.288448",
    "lat": "39.8401619999999"
  },
  {
    "name": "石郎庄",
    "primary": false,
    "address": "河北省唐山市滦县榛子镇",
    "owner": "北京铁路局",
    "category": "",
    "type": "乘降所",
    "province": "河北",
    "city": "唐山",
    "lng": "118.353291",
    "lat": "39.863256"
  },
  {
    "name": "螺山",
    "primary": false,
    "address": "河北省唐山市玉田县大安镇",
    "owner": "北京铁路局",
    "category": "",
    "type": "乘降所",
    "province": "河北",
    "city": "唐山",
    "lng": "117.556189",
    "lat": "39.924283"
  },
  {
    "name": "玉田县",
    "primary": false,
    "address": "河北省唐山市玉田县无终街货场路299号",
    "owner": "北京铁路局",
    "category": "",
    "type": "客运站",
    "province": "河北",
    "city": "唐山",
    "lng": "117.735168",
    "lat": "39.8825999999999",
    "pinyin": "yutianxian",
    "abbreviation": "ATP"
  },
  {
    "name": "吴桥",
    "primary": false,
    "address": "河北省吴桥县站前一路西端",
    "owner": "北京铁路局",
    "category": "",
    "type": "客运站",
    "province": "河北",
    "city": "沧州",
    "lng": "116.38682",
    "lat": "37.6272039999999",
    "pinyin": "wuqiao",
    "abbreviation": "WUP"
  },
  {
    "name": "磁山",
    "primary": false,
    "address": "河北省武安市磁山镇中孔壁村",
    "owner": "北京铁路局",
    "category": "",
    "type": "客运站",
    "province": "河北",
    "city": "邯郸",
    "lng": "114.118415",
    "lat": "36.5975159999999",
    "pinyin": "cishan",
    "abbreviation": "CSP"
  },
  {
    "name": "康城",
    "primary": false,
    "address": "河北省武安市康城镇康西村",
    "owner": "北京铁路局",
    "category": "",
    "type": "乘降所",
    "province": "河北",
    "city": "邯郸",
    "lng": "114.290729",
    "lat": "36.656294",
    "pinyin": "kangcheng",
    "abbreviation": "KCP"
  },
  {
    "name": "徘徊北",
    "primary": false,
    "address": "河北省武安市徘徊镇",
    "owner": "北京铁路局",
    "category": "",
    "type": "乘降所",
    "province": "河北",
    "city": "邯郸",
    "lng": "114.045794",
    "lat": "36.6069",
    "pinyin": "paihuaibei",
    "abbreviation": "PHP"
  },
  {
    "name": "什里店",
    "primary": false,
    "address": "河北省武安市石洞乡什里店村",
    "owner": "北京铁路局",
    "category": "",
    "type": "乘降所",
    "province": "河北",
    "city": "邯郸",
    "lng": "113.943161",
    "lat": "36.690358",
    "pinyin": "shilidian",
    "abbreviation": "OMP"
  },
  {
    "name": "武安",
    "primary": false,
    "address": "河北省武安市铁北路256号",
    "owner": "北京铁路局",
    "category": "",
    "type": "客运站",
    "province": "河北",
    "city": "邯郸",
    "lng": "114.212481",
    "lat": "36.676889",
    "pinyin": "wuan",
    "abbreviation": "WAP"
  },
  {
    "name": "午汲",
    "primary": false,
    "address": "河北省武安市午汲镇行孝村",
    "owner": "北京铁路局",
    "category": "",
    "type": "乘降所",
    "province": "河北",
    "city": "邯郸",
    "lng": "114.154996999999",
    "lat": "36.651898",
    "pinyin": "wuji",
    "abbreviation": "WJP"
  },
  {
    "name": "阳邑",
    "primary": false,
    "address": "河北省武安市阳邑镇",
    "owner": "北京铁路局",
    "category": "",
    "type": "客运站",
    "province": "河北",
    "city": "邯郸",
    "lng": "113.903392999999",
    "lat": "36.737439",
    "pinyin": "yangyi",
    "abbreviation": "ARP"
  },
  {
    "name": "新固镇",
    "primary": false,
    "address": "河北省武安市冶陶镇固镇村",
    "owner": "北京铁路局",
    "category": "",
    "type": "乘降所",
    "province": "河北",
    "city": "邯郸",
    "lng": "113.982436",
    "lat": "36.6372199999999"
  },
  {
    "name": "辛集",
    "primary": false,
    "address": "河北省辛集市兴华路1号",
    "owner": "北京铁路局",
    "category": "",
    "type": "客运站",
    "province": "河北",
    "city": "石家庄",
    "lng": "115.21549",
    "lat": "37.905202",
    "pinyin": "xinji",
    "abbreviation": "ENP"
  },
  {
    "name": "南宫东",
    "primary": false,
    "address": "河北省邢台南宫市段芦头镇",
    "owner": "北京铁路局",
    "category": "",
    "type": "客运站",
    "province": "河北",
    "city": "邢台",
    "lng": "115.701842",
    "lat": "37.1757289999999",
    "pinyin": "nangongdong",
    "abbreviation": "NFP"
  },
  {
    "name": "邢台",
    "primary": false,
    "address": "河北省邢台市车站北路20号",
    "owner": "北京铁路局",
    "category": "",
    "type": "客运站",
    "province": "河北",
    "city": "邢台",
    "lng": "114.492925",
    "lat": "37.06985",
    "pinyin": "xingtai",
    "abbreviation": "XTP"
  },
  {
    "name": "邢台东",
    "primary": true,
    "address": "河北省邢台市经济开发区振兴一路邢台东站",
    "owner": "北京铁路局",
    "category": "",
    "type": "客运站",
    "province": "河北",
    "city": "邢台",
    "lng": "114.591990999999",
    "lat": "37.0915639999999",
    "pinyin": "xingtaidong",
    "abbreviation": "EDP"
  },
  {
    "name": "前苇塘",
    "primary": false,
    "address": "河北省兴隆县六道河子镇前苇塘村",
    "owner": "北京铁路局",
    "category": "",
    "type": "乘降所",
    "province": "河北",
    "city": "承德",
    "lng": "117.412513",
    "lat": "40.40106",
    "pinyin": "qianweitang",
    "abbreviation": "QWP"
  },
  {
    "name": "南城司",
    "primary": false,
    "address": "河北省易县南城司乡南城司火车站",
    "owner": "北京铁路局",
    "category": "",
    "type": "乘降所",
    "province": "河北",
    "city": "保定",
    "lng": "115.262708",
    "lat": "39.5495919999999",
    "pinyin": "nanchengsi",
    "abbreviation": "NSP"
  },
  {
    "name": "奇峰塔",
    "primary": false,
    "address": "河北省易县南城司乡奇峰塔火车站",
    "owner": "北京铁路局",
    "category": "",
    "type": "乘降所",
    "province": "河北",
    "city": "保定",
    "lng": "115.232052",
    "lat": "39.490831",
    "pinyin": "qifengta",
    "abbreviation": "QVP"
  },
  {
    "name": "大盘石",
    "primary": false,
    "address": "河北省易县紫荆关镇大盘石村大盘石火车站",
    "owner": "北京铁路局",
    "category": "",
    "type": "乘降所",
    "province": "河北",
    "city": "保定",
    "lng": "115.091781",
    "lat": "39.428072",
    "pinyin": "dapanshi",
    "abbreviation": "RPP"
  },
  {
    "name": "紫荆关",
    "primary": false,
    "address": "河北省易县紫荆关镇紫荆关火车站",
    "owner": "北京铁路局",
    "category": "",
    "type": "乘降所",
    "province": "河北",
    "city": "保定",
    "lng": "115.177763",
    "lat": "39.454371",
    "pinyin": "zijingguan",
    "abbreviation": "ZYP"
  },
  {
    "name": "张家口南",
    "primary": true,
    "address": "河北省张家口市高新区站前西大街11号",
    "owner": "北京铁路局",
    "category": "",
    "type": "客运站",
    "province": "河北",
    "city": "张家口",
    "lng": "114.883223",
    "lat": "40.752267",
    "pinyin": "zhangjiakounan",
    "abbreviation": "IXP"
  },
  {
    "name": "官厅",
    "primary": false,
    "address": "河北省张家口市怀来县官厅镇",
    "owner": "北京铁路局",
    "category": "",
    "type": "客运站",
    "province": "河北",
    "city": "张家口",
    "lng": "115.585545",
    "lat": "40.2540029999999",
    "pinyin": "guanting",
    "abbreviation": "GTP"
  },
  {
    "name": "官厅西",
    "primary": false,
    "address": "河北省张家口市怀来县官厅镇",
    "owner": "北京铁路局",
    "category": "",
    "type": "乘降所",
    "province": "河北",
    "city": "张家口",
    "lng": "115.579347",
    "lat": "40.252881",
    "pinyin": "guantingxi",
    "abbreviation": "KEP"
  },
  {
    "name": "沙城",
    "primary": false,
    "address": "河北省张家口市怀来县沙城镇车站街1号",
    "owner": "北京铁路局",
    "category": "",
    "type": "客运站",
    "province": "河北",
    "city": "张家口",
    "lng": "115.515970999999",
    "lat": "40.397297",
    "pinyin": "shacheng",
    "abbreviation": "SCP"
  },
  {
    "name": "张家口",
    "primary": false,
    "address": "河北省张家口市桥东区东安大街1号",
    "owner": "北京铁路局",
    "category": "",
    "type": "客运站",
    "province": "河北",
    "city": "张家口",
    "lng": "114.882713",
    "lat": "40.8105499999999",
    "pinyin": "zhangjiakou",
    "abbreviation": "ZMP"
  },
  {
    "name": "下花园",
    "primary": false,
    "address": "河北省张家口市下花园区公路街7号",
    "owner": "北京铁路局",
    "category": "",
    "type": "客运站",
    "province": "河北",
    "city": "张家口",
    "lng": "115.280063",
    "lat": "40.486732",
    "pinyin": "xiahuayuan",
    "abbreviation": "XYP"
  },
  {
    "name": "宣化",
    "primary": false,
    "address": "河北省张家口市宣化区车站街1号",
    "owner": "北京铁路局",
    "category": "",
    "type": "客运站",
    "province": "河北",
    "city": "张家口",
    "lng": "115.057131",
    "lat": "40.5982199999999",
    "pinyin": "xuanhua",
    "abbreviation": "XHP"
  },
  {
    "name": "沙岭子",
    "primary": false,
    "address": "河北省张家口市宣化区沙岭子镇二里丰村",
    "owner": "北京铁路局",
    "category": "",
    "type": "客运站",
    "province": "河北",
    "city": "张家口",
    "lng": "114.924869",
    "lat": "40.672997",
    "pinyin": "shalingzi",
    "abbreviation": "SLP"
  },
  {
    "name": "涿州东",
    "primary": false,
    "address": "河北省涿州市高新产业开发区高铁新城涿州东站",
    "owner": "北京铁路局",
    "category": "",
    "type": "客运站",
    "province": "河北",
    "city": "保定",
    "lng": "116.053168",
    "lat": "39.459681",
    "pinyin": "zhuozhoudong",
    "abbreviation": "ZAP"
  },
  {
    "name": "涿州",
    "primary": false,
    "address": "河北省涿州市迎宾路73号",
    "owner": "北京铁路局",
    "category": "",
    "type": "客运站",
    "province": "河北",
    "city": "保定",
    "lng": "115.98417",
    "lat": "39.4811139999999",
    "pinyin": "zhuozhou",
    "abbreviation": "ZXP"
  },
  {
    "name": "德州",
    "primary": true,
    "address": "山东省德州市德城区迎宾路甲1号",
    "owner": "北京铁路局",
    "category": "",
    "type": "客运站",
    "province": "山东",
    "city": "德州",
    "lng": "116.288473",
    "lat": "37.449347",
    "pinyin": "dezhou",
    "abbreviation": "DZP"
  },
  {
    "name": "德州东",
    "primary": true,
    "address": "山东省德州市经济开发区",
    "owner": "北京铁路局",
    "category": "",
    "type": "客运站",
    "province": "山东",
    "city": "德州",
    "lng": "116.461698",
    "lat": "37.409615",
    "pinyin": "dezhoudong",
    "abbreviation": "DIP"
  },
  {
    "name": "大涧",
    "primary": true,
    "address": "山西省大同市灵丘县落水河乡大涧村大涧火车站",
    "owner": "北京铁路局",
    "category": "",
    "type": "乘降所",
    "province": "山西",
    "city": "大同",
    "lng": "114.301339",
    "lat": "39.4800079999999",
    "pinyin": "dajian",
    "abbreviation": "DFP"
  },
  {
    "name": "南峧",
    "primary": false,
    "address": "山西省黎城县东阳关镇南峧村",
    "owner": "北京铁路局",
    "category": "",
    "type": "乘降所",
    "province": "山西",
    "city": "晋中",
    "lng": "113.557486",
    "lat": "36.5737219999999"
  },
  {
    "name": "水洋",
    "primary": false,
    "address": "山西省黎城县西仵乡水洋村",
    "owner": "北京铁路局",
    "category": "",
    "type": "乘降所",
    "province": "浙江",
    "city": "杭州",
    "lng": "120.173941",
    "lat": "30.247098",
    "pinyin": "shuiyang",
    "abbreviation": "OYP"
  },
  {
    "name": "云彩岭",
    "primary": false,
    "address": "山西省灵丘县落水河乡孤山村云彩岭火车站",
    "owner": "北京铁路局",
    "category": "",
    "type": "乘降所",
    "province": "山西",
    "city": "大同",
    "lng": "114.363181",
    "lat": "39.4486759999999",
    "pinyin": "yuncailing",
    "abbreviation": "ACP"
  },
  {
    "name": "招柏",
    "primary": false,
    "address": "山西省灵丘县落水河乡招柏村招柏火车站",
    "owner": "北京铁路局",
    "category": "",
    "type": "乘降所",
    "province": "山西",
    "city": "大同",
    "lng": "114.408933",
    "lat": "39.404947",
    "pinyin": "zhaobai",
    "abbreviation": "ZBP"
  },
  {
    "name": "微子镇",
    "primary": false,
    "address": "山西省潞城市微子镇乡",
    "owner": "北京铁路局",
    "category": "",
    "type": "乘降所",
    "province": "山西",
    "city": "长治",
    "lng": "113.299646999999",
    "lat": "36.331485",
    "pinyin": "weizizhen",
    "abbreviation": "WQP"
  },
  {
    "name": "潞城",
    "primary": true,
    "address": "山西省潞城市站前路1号",
    "owner": "北京铁路局",
    "category": "",
    "type": "客运站",
    "province": "山西",
    "city": "长治",
    "lng": "113.222105",
    "lat": "36.3209329999999",
    "pinyin": "lucheng",
    "abbreviation": "UTP"
  },
  {
    "name": "阳泉",
    "primary": true,
    "address": "山西省阳泉市德胜街130号",
    "owner": "北京铁路局",
    "category": "",
    "type": "客运站",
    "province": "山西",
    "city": "阳泉",
    "lng": "113.592314",
    "lat": "37.8562909999999",
    "pinyin": "yangquan",
    "abbreviation": "AQP"
  },
  {
    "name": "岩会",
    "primary": false,
    "address": "山西省阳泉市平定县巨城镇",
    "owner": "北京铁路局",
    "category": "",
    "type": "客运站",
    "province": "山西",
    "city": "阳泉",
    "lng": "113.741551",
    "lat": "37.879634",
    "pinyin": "yanhui",
    "abbreviation": "AEP"
  },
  {
    "name": "娘子关",
    "primary": false,
    "address": "山西省阳泉市平定县娘子关镇",
    "owner": "北京铁路局",
    "category": "",
    "type": "客运站",
    "province": "山西",
    "city": "阳泉",
    "lng": "113.87384",
    "lat": "37.9672079999999",
    "pinyin": "niangziguan",
    "abbreviation": "NIP"
  },
  {
    "name": "程家",
    "primary": false,
    "address": "山西省阳泉市平定县娘子关镇程家村",
    "owner": "北京铁路局",
    "category": "",
    "type": "乘降所",
    "province": "山西",
    "city": "阳泉",
    "lng": "113.845408",
    "lat": "37.922134"
  },
  {
    "name": "阳泉北",
    "primary": false,
    "address": "山西省阳泉市盂县水神山路1号",
    "owner": "北京铁路局",
    "category": "",
    "type": "客运站",
    "province": "山西",
    "city": "阳泉",
    "lng": "113.438402999999",
    "lat": "38.115346",
    "pinyin": "yangquanbei",
    "abbreviation": "YPP"
  },
  {
    "name": "黎城",
    "primary": false,
    "address": "山西省长治市黎城县广邯街2号",
    "owner": "北京铁路局",
    "category": "",
    "type": "客运站",
    "province": "山西",
    "city": "长治",
    "lng": "113.392553",
    "lat": "36.5148549999999",
    "pinyin": "licheng",
    "abbreviation": "UCP"
  },
  {
    "name": "大口屯",
    "primary": false,
    "address": "天津市宝坻区大口屯乡",
    "owner": "北京铁路局",
    "category": "",
    "type": "乘降所",
    "province": "天津",
    "city": "宝坻区",
    "lng": "117.264501",
    "lat": "39.6049319999999",
    "pinyin": "dakoutun",
    "abbreviation": "DKP"
  },
  {
    "name": "宝坻",
    "primary": true,
    "address": "天津市宝坻区火车站路1号",
    "owner": "北京铁路局",
    "category": "",
    "type": "客运站",
    "province": "天津",
    "city": "宝坻区",
    "lng": "117.335686",
    "lat": "39.715789",
    "pinyin": "baodi",
    "abbreviation": "BPP"
  },
  {
    "name": "汉沟镇",
    "primary": false,
    "address": "天津市北辰区",
    "owner": "北京铁路局",
    "category": "",
    "type": "乘降所",
    "province": "天津",
    "city": "宝坻区",
    "lng": "117.101494",
    "lat": "39.297963"
  },
  {
    "name": "北仓",
    "primary": false,
    "address": "天津市北辰区",
    "owner": "北京铁路局",
    "category": "",
    "type": "乘降所",
    "province": "天津",
    "city": "北辰区",
    "lng": "117.152091",
    "lat": "39.2428609999999"
  },
  {
    "name": "滨海北",
    "primary": false,
    "address": "天津市滨海新区茶东村（滨汉公路茶淀地道口附近）",
    "owner": "北京铁路局",
    "category": "",
    "type": "客运站",
    "province": "天津",
    "city": "滨海新区",
    "lng": "117.761599",
    "lat": "39.236569",
    "pinyin": "binhaibei",
    "abbreviation": "FCP"
  },
  {
    "name": "滨海",
    "primary": true,
    "address": "天津市滨海新区西中环快速路与华山道交叉口西侧",
    "owner": "北京铁路局",
    "category": "",
    "type": "客运站",
    "province": "天津",
    "city": "滨海新区",
    "lng": "117.611701999999",
    "lat": "39.0815279999999",
    "pinyin": "binhai",
    "abbreviation": "YKP"
  },
  {
    "name": "军粮城",
    "primary": false,
    "address": "天津市东丽区军粮城镇",
    "owner": "北京铁路局",
    "category": "",
    "type": "乘降所",
    "province": "天津",
    "city": "东丽区",
    "lng": "117.448673",
    "lat": "39.056873"
  },
  {
    "name": "军粮城北",
    "primary": false,
    "address": "天津市东丽区军粮城镇新安路1号",
    "owner": "北京铁路局",
    "category": "",
    "type": "客运站",
    "province": "天津",
    "city": "东丽区",
    "lng": "117.428441",
    "lat": "39.065927",
    "pinyin": "junliangchengbei",
    "abbreviation": "JMP"
  },
  {
    "name": "天津",
    "primary": true,
    "address": "天津市河北区新纬路1号",
    "owner": "北京铁路局",
    "category": "",
    "type": "客运站",
    "province": "天津",
    "city": "河北区",
    "lng": "117.210114",
    "lat": "39.1356559999999",
    "pinyin": "tianjin",
    "abbreviation": "TJP"
  },
  {
    "name": "天津西",
    "primary": true,
    "address": "天津市红桥区西站前街1号",
    "owner": "北京铁路局",
    "category": "",
    "type": "客运站",
    "province": "天津",
    "city": "红桥区",
    "lng": "117.163382",
    "lat": "39.158531",
    "pinyin": "tianjinxi",
    "abbreviation": "TXP"
  },
  {
    "name": "别山",
    "primary": false,
    "address": "天津市蓟县别山镇",
    "owner": "北京铁路局",
    "category": "",
    "type": "乘降所",
    "province": "天津",
    "city": "红桥区",
    "lng": "117.478375",
    "lat": "39.955575"
  },
  {
    "name": "蓟县",
    "primary": false,
    "address": "天津市蓟县城关镇火车站路1号",
    "owner": "北京铁路局",
    "category": "",
    "type": "客运站",
    "province": "天津",
    "city": "蓟县",
    "lng": "117.397953",
    "lat": "40.026769"
  },
  {
    "name": "上仓",
    "primary": false,
    "address": "天津市蓟县上仓乡",
    "owner": "北京铁路局",
    "category": "",
    "type": "乘降所",
    "province": "天津",
    "city": "蓟县",
    "lng": "117.409343",
    "lat": "39.910926"
  },
  {
    "name": "下仓",
    "primary": false,
    "address": "天津市蓟县下仓乡",
    "owner": "北京铁路局",
    "category": "",
    "type": "乘降所",
    "province": "天津",
    "city": "蓟县",
    "lng": "117.434141999999",
    "lat": "39.7967519999999"
  },
  {
    "name": "蓟县南",
    "primary": false,
    "address": "天津市蓟县洇溜乡",
    "owner": "北京铁路局",
    "category": "",
    "type": "乘降所",
    "province": "天津",
    "city": "蓟县",
    "lng": "117.3645",
    "lat": "39.992071"
  },
  {
    "name": "静海",
    "primary": false,
    "address": "天津市静海县东方红路与联盟大街交口",
    "owner": "北京铁路局",
    "category": "",
    "type": "客运站",
    "province": "天津",
    "city": "静海县",
    "lng": "116.929833",
    "lat": "38.932768",
    "pinyin": "jinghai",
    "abbreviation": "JHP"
  },
  {
    "name": "唐官屯",
    "primary": false,
    "address": "天津市静海县唐官屯镇军民东路增1号",
    "owner": "北京铁路局",
    "category": "",
    "type": "乘降所",
    "province": "天津",
    "city": "静海县",
    "lng": "116.930499",
    "lat": "38.711612"
  },
  {
    "name": "塘沽",
    "primary": false,
    "address": "天津市塘沽区大连道2543号",
    "owner": "北京铁路局",
    "category": "",
    "type": "客运站",
    "province": "天津",
    "city": "滨海新区",
    "lng": "117.641081",
    "lat": "39.0270289999999",
    "pinyin": "tanggu",
    "abbreviation": "TGP"
  },
  {
    "name": "曹子里",
    "primary": false,
    "address": "天津市武清区曹子里乡",
    "owner": "北京铁路局",
    "category": "",
    "type": "乘降所",
    "province": "天津",
    "city": "武清区",
    "lng": "117.15354",
    "lat": "39.4218529999999",
    "pinyin": "caozili",
    "abbreviation": "CFP"
  },
  {
    "name": "崔黄口",
    "primary": false,
    "address": "天津市武清区崔黄口乡",
    "owner": "北京铁路局",
    "category": "",
    "type": "乘降所",
    "province": "天津",
    "city": "武清区",
    "lng": "117.201434",
    "lat": "39.5215549999999",
    "pinyin": "cuihuangkou",
    "abbreviation": "CHP"
  },
  {
    "name": "武清",
    "primary": false,
    "address": "天津市武清区前进道上佛罗伦萨小镇对过",
    "owner": "北京铁路局",
    "category": "",
    "type": "客运站",
    "province": "天津",
    "city": "武清区",
    "lng": "117.016239",
    "lat": "39.372464",
    "pinyin": "wuqing",
    "abbreviation": "WWP"
  },
  {
    "name": "杨柳青",
    "primary": false,
    "address": "天津市西青区杨柳青镇西青道",
    "owner": "北京铁路局",
    "category": "",
    "type": "客运站",
    "province": "天津",
    "city": "西青区",
    "lng": "117.002407",
    "lat": "39.142116",
    "pinyin": "yangliuqing",
    "abbreviation": "YQP"
  },
  {
    "name": "天津南",
    "primary": false,
    "address": "天津市西青区张家窝镇",
    "owner": "北京铁路局",
    "category": "",
    "type": "客运站",
    "province": "天津",
    "city": "西青区",
    "lng": "117.060855",
    "lat": "39.0571109999999",
    "pinyin": "tianjinnan",
    "abbreviation": "TIP"
  },
  {
    "name": "旧庄窝东",
    "primary": false,
    "address": "张家口市怀来县官厅镇",
    "owner": "北京铁路局",
    "category": "",
    "type": "乘降所",
    "province": "河北",
    "city": "张家口",
    "lng": "115.647938999999",
    "lat": "40.16714"
  },
  {
    "name": "旧庄窝",
    "primary": false,
    "address": "张家口市怀来县官厅镇",
    "owner": "北京铁路局",
    "category": "",
    "type": "乘降所",
    "province": "河北",
    "city": "张家口",
    "lng": "115.639358",
    "lat": "40.1723679999999",
    "pinyin": "jiuzhuangwo",
    "abbreviation": "JVP"
  },
  {
    "name": "石板滩",
    "primary": false,
    "address": "成都市新都区石龙老路石板滩车站",
    "owner": "成都铁路局",
    "category": "",
    "type": "乘降所",
    "province": "四川",
    "city": "成都",
    "lng": "104.264675",
    "lat": "30.725753"
  },
  {
    "name": "娄山关",
    "primary": false,
    "address": "贵卅省遵义市汇川区板桥缜九龙村陈家湾",
    "owner": "成都铁路局",
    "category": "",
    "type": "乘降所",
    "province": "贵州",
    "city": "遵义",
    "lng": "106.899963",
    "lat": "28.0335609999999"
  },
  {
    "name": "么铺",
    "primary": false,
    "address": "贵州省安顺市开发区幺铺镇",
    "owner": "成都铁路局",
    "category": "",
    "type": "乘降所",
    "province": "贵州",
    "city": "安顺",
    "lng": "105.84081",
    "lat": "26.176461"
  },
  {
    "name": "高峰",
    "primary": false,
    "address": "贵州省安顺市平坝（县）高峰（镇）",
    "owner": "成都铁路局",
    "category": "",
    "type": "乘降所",
    "province": "贵州",
    "city": "安顺",
    "lng": "106.345566",
    "lat": "26.386724"
  },
  {
    "name": "新平坝",
    "primary": false,
    "address": "贵州省安顺市平坝县陶官村",
    "owner": "成都铁路局",
    "category": "",
    "type": "乘降所",
    "province": "贵州",
    "city": "安顺",
    "lng": "106.291405",
    "lat": "26.4087689999999"
  },
  {
    "name": "平坝",
    "primary": false,
    "address": "贵州省安顺市平坝县羊昌镇",
    "owner": "成都铁路局",
    "category": "",
    "type": "乘降所",
    "province": "贵州",
    "city": "安顺",
    "lng": "106.296723",
    "lat": "26.389778"
  },
  {
    "name": "化处",
    "primary": false,
    "address": "贵州省安顺市普定县化处镇",
    "owner": "成都铁路局",
    "category": "",
    "type": "乘降所",
    "province": "贵州",
    "city": "安顺",
    "lng": "105.619624",
    "lat": "26.209029"
  },
  {
    "name": "天龙",
    "primary": false,
    "address": "贵州省安顺市天龙镇",
    "owner": "成都铁路局",
    "category": "",
    "type": "乘降所",
    "province": "贵州",
    "city": "安顺",
    "lng": "106.171815",
    "lat": "26.368366"
  },
  {
    "name": "安顺",
    "primary": false,
    "address": "贵州省安顺市西秀区南华路1号",
    "owner": "成都铁路局",
    "category": "",
    "type": "客运站",
    "province": "贵州",
    "city": "安顺",
    "lng": "105.942716",
    "lat": "26.2294149999999",
    "pinyin": "anshun",
    "abbreviation": "ASW"
  },
  {
    "name": "两所屯",
    "primary": false,
    "address": "贵州省安顺市西秀区七眼桥镇",
    "owner": "成都铁路局",
    "category": "",
    "type": "乘降所",
    "province": "贵州",
    "city": "安顺",
    "lng": "106.008849",
    "lat": "26.2681819999999"
  },
  {
    "name": "墨冲",
    "primary": false,
    "address": "贵州省都匀市墨冲镇",
    "owner": "成都铁路局",
    "category": "",
    "type": "乘降所",
    "province": "贵州",
    "city": "黔西南布依族苗族自治州",
    "lng": "107.466718",
    "lat": "26.050899"
  },
  {
    "name": "都匀",
    "primary": false,
    "address": "贵州省都匀市小围寨王家司村",
    "owner": "成都铁路局",
    "category": "",
    "type": "客运站",
    "province": "贵州",
    "city": "黔西南布依族苗族自治州",
    "lng": "107.515294",
    "lat": "26.2319579999999",
    "pinyin": "duyun",
    "abbreviation": "RYW"
  },
  {
    "name": "打羊",
    "primary": false,
    "address": "贵州省独山县打羊乡",
    "owner": "成都铁路局",
    "category": "",
    "type": "乘降所",
    "province": "贵州",
    "city": "黔西南布依族苗族自治州",
    "lng": "107.573211",
    "lat": "25.645524"
  },
  {
    "name": "星朗",
    "primary": false,
    "address": "贵州省独山县甲里镇",
    "owner": "成都铁路局",
    "category": "",
    "type": "乘降所",
    "province": "贵州",
    "city": "黔西南布依族苗族自治州",
    "lng": "107.493753",
    "lat": "25.468066"
  },
  {
    "name": "独山",
    "primary": false,
    "address": "贵州省独山县麻万镇",
    "owner": "成都铁路局",
    "category": "",
    "type": "客运站",
    "province": "贵州",
    "city": "黔西南布依族苗族自治州",
    "lng": "107.547689",
    "lat": "25.86409",
    "pinyin": "dushan",
    "abbreviation": "RWW"
  },
  {
    "name": "麻尾",
    "primary": true,
    "address": "贵州省独山县麻尾镇",
    "owner": "成都铁路局",
    "category": "",
    "type": "客运站",
    "province": "贵州",
    "city": "黔西南布依族苗族自治州",
    "lng": "107.469269",
    "lat": "25.3443669999999",
    "pinyin": "mawei",
    "abbreviation": "VAW"
  },
  {
    "name": "学庄",
    "primary": false,
    "address": "贵州省独山县上司镇学庄村",
    "owner": "成都铁路局",
    "category": "",
    "type": "乘降所",
    "province": "贵州",
    "city": "黔西南布依族苗族自治州",
    "lng": "107.56549",
    "lat": "25.6925379999999"
  },
  {
    "name": "朱石寨",
    "primary": false,
    "address": "贵州省独山县尧棒乡",
    "owner": "成都铁路局",
    "category": "",
    "type": "乘降所",
    "province": "贵州",
    "city": "黔西南布依族苗族自治州",
    "lng": "107.473969999999",
    "lat": "25.389983"
  },
  {
    "name": "黄丝",
    "primary": false,
    "address": "贵州省福泉市黄丝镇",
    "owner": "成都铁路局",
    "category": "",
    "type": "乘降所",
    "province": "贵州",
    "city": "黔西南布依族苗族自治州",
    "lng": "107.408171",
    "lat": "26.589486"
  },
  {
    "name": "福泉",
    "primary": false,
    "address": "贵州省福泉市马场坪镇笔山路",
    "owner": "成都铁路局",
    "category": "",
    "type": "客运站",
    "province": "贵州",
    "city": "黔西南布依族苗族自治州",
    "lng": "107.536107",
    "lat": "26.625342",
    "pinyin": "fuquan",
    "abbreviation": "VMW"
  },
  {
    "name": "高峰",
    "primary": false,
    "address": "贵州省贵安新区高峰镇黄猫村",
    "owner": "成都铁路局",
    "category": "",
    "type": "乘降所",
    "province": "贵州",
    "city": "黔西南布依族苗族自治州",
    "lng": "106.345566",
    "lat": "26.386724"
  },
  {
    "name": "贵定南",
    "primary": false,
    "address": "贵州省贵定县昌明镇",
    "owner": "成都铁路局",
    "category": "",
    "type": "客运站",
    "province": "贵州",
    "city": "黔南布依族苗族自治州",
    "lng": "115.011891",
    "lat": "24.780704",
    "pinyin": "guidingnan",
    "abbreviation": "IDW"
  },
  {
    "name": "贵定",
    "primary": false,
    "address": "贵州省贵定县公园路",
    "owner": "成都铁路局",
    "category": "",
    "type": "客运站",
    "province": "贵州",
    "city": "黔南布依族苗族自治州",
    "lng": "107.228706",
    "lat": "26.581553",
    "pinyin": "guiding",
    "abbreviation": "GTW"
  },
  {
    "name": "湖潮",
    "primary": false,
    "address": "贵州省贵阳市花溪区湖潮镇",
    "owner": "成都铁路局",
    "category": "",
    "type": "乘降所",
    "province": "贵州",
    "city": "贵阳",
    "lng": "106.523013",
    "lat": "26.4430559999999"
  },
  {
    "name": "贵阳",
    "primary": true,
    "address": "贵州省贵阳市南明区遵义路296号",
    "owner": "成都铁路局",
    "category": "",
    "type": "客运站",
    "province": "贵州",
    "city": "贵阳",
    "lng": "106.703343",
    "lat": "26.556719",
    "pinyin": "guiyang",
    "abbreviation": "GIW"
  },
  {
    "name": "息烽",
    "primary": false,
    "address": "贵州省贵阳市息烽县永靖镇环城路？",
    "owner": "成都铁路局",
    "category": "",
    "type": "客运站",
    "province": "贵州",
    "city": "贵阳",
    "lng": "106.747326",
    "lat": "27.0780339999999",
    "pinyin": "xifeng",
    "abbreviation": "XFW"
  },
  {
    "name": "宝老山",
    "primary": false,
    "address": "贵州省黄平县谷陇镇",
    "owner": "成都铁路局",
    "category": "",
    "type": "乘降所",
    "province": "贵州",
    "city": "黔东南",
    "lng": "108.062838",
    "lat": "26.8322"
  },
  {
    "name": "黄平",
    "primary": false,
    "address": "贵州省黄平县谷陇镇",
    "owner": "成都铁路局",
    "category": "",
    "type": "乘降所",
    "province": "贵州",
    "city": "黔东南",
    "lng": "108.100356",
    "lat": "26.867086"
  },
  {
    "name": "凯里",
    "primary": false,
    "address": "贵州省凯里市清江路88号",
    "owner": "成都铁路局",
    "category": "",
    "type": "客运站",
    "province": "贵州",
    "city": "黔东南",
    "lng": "107.976389",
    "lat": "26.6027869999999",
    "pinyin": "kaili",
    "abbreviation": "KLW"
  },
  {
    "name": "加劳",
    "primary": false,
    "address": "贵州省凯里市湾水镇",
    "owner": "成都铁路局",
    "category": "",
    "type": "乘降所",
    "province": "贵州",
    "city": "凯里",
    "lng": "108.009584",
    "lat": "26.731123"
  },
  {
    "name": "桐木寨",
    "primary": false,
    "address": "贵州省凯里市湾水镇",
    "owner": "成都铁路局",
    "category": "",
    "type": "乘降所",
    "province": "贵州",
    "city": "凯里",
    "lng": "107.997508999999",
    "lat": "26.681998"
  },
  {
    "name": "六个鸡",
    "primary": false,
    "address": "贵州省凯里市县炉山镇",
    "owner": "成都铁路局",
    "category": "",
    "type": "乘降所",
    "province": "贵州",
    "city": "凯里",
    "lng": "107.784487",
    "lat": "26.5712119999999"
  },
  {
    "name": "六枝",
    "primary": false,
    "address": "贵州省六盘水市六枝特区平寨镇交通西路",
    "owner": "成都铁路局",
    "category": "",
    "type": "客运站",
    "province": "贵州",
    "city": "六盘水",
    "lng": "105.464522",
    "lat": "26.225605",
    "pinyin": "liuzhi",
    "abbreviation": "LIW"
  },
  {
    "name": "马嘎",
    "primary": false,
    "address": "贵州省六盘水市水城县双嘎乡",
    "owner": "成都铁路局",
    "category": "",
    "type": "乘降所",
    "province": "贵州",
    "city": "六盘水",
    "lng": "104.773016",
    "lat": "26.622468"
  },
  {
    "name": "水城",
    "primary": false,
    "address": "贵州省六盘水市钟山区水城县境内",
    "owner": "成都铁路局",
    "category": "",
    "type": "乘降所",
    "province": "贵州",
    "city": "六盘水",
    "lng": "104.892157",
    "lat": "26.575299"
  },
  {
    "name": "六盘水",
    "primary": true,
    "address": "贵州省六盘水市钟山区水西路",
    "owner": "成都铁路局",
    "category": "",
    "type": "客运站",
    "province": "贵州",
    "city": "六盘水",
    "lng": "104.851558999999",
    "lat": "26.591362",
    "pinyin": "liupanshui",
    "abbreviation": "UMW"
  },
  {
    "name": "那玉",
    "primary": false,
    "address": "贵州省六枝特区平寨镇境内",
    "owner": "成都铁路局",
    "category": "",
    "type": "乘降所",
    "province": "贵州",
    "city": "六盘水",
    "lng": "105.426829",
    "lat": "26.250862"
  },
  {
    "name": "关寨",
    "primary": false,
    "address": "贵州省六枝特区箐口乡境内",
    "owner": "成都铁路局",
    "category": "",
    "type": "乘降所",
    "province": "贵州",
    "city": "六盘水",
    "lng": "105.223715",
    "lat": "26.283988"
  },
  {
    "name": "高坪铺",
    "primary": false,
    "address": "贵州省龙里县",
    "owner": "成都铁路局",
    "category": "",
    "type": "乘降所",
    "province": "贵州",
    "city": "六盘水",
    "lng": "107.143066",
    "lat": "26.5141959999999"
  },
  {
    "name": "麻江",
    "primary": false,
    "address": "贵州省麻江县碧波镇白秧坪村",
    "owner": "成都铁路局",
    "category": "",
    "type": "乘降所",
    "province": "贵州",
    "city": "黔东南",
    "lng": "107.450761",
    "lat": "26.469192"
  },
  {
    "name": "普定",
    "primary": false,
    "address": "贵州省普定县城关镇斗篷村石堡寨",
    "owner": "成都铁路局",
    "category": "",
    "type": "乘降所",
    "province": "贵州",
    "city": "安顺",
    "lng": "105.712351",
    "lat": "26.283009",
    "pinyin": "puding",
    "abbreviation": "PGW"
  },
  {
    "name": "黄桶",
    "primary": false,
    "address": "贵州省普定县马关镇黄桶村",
    "owner": "成都铁路局",
    "category": "",
    "type": "乘降所",
    "province": "贵州",
    "city": "安顺",
    "lng": "105.685757",
    "lat": "26.1977359999999"
  },
  {
    "name": "龙里",
    "primary": false,
    "address": "贵州省黔南苗族自治州龙里县",
    "owner": "成都铁路局",
    "category": "",
    "type": "客运站",
    "province": "贵州",
    "city": "黔东南",
    "lng": "106.969455999999",
    "lat": "26.4510989999999",
    "pinyin": "longli",
    "abbreviation": "LLW"
  },
  {
    "name": "老罗堡",
    "primary": false,
    "address": "贵州省黔南州龙里县老罗堡村",
    "owner": "成都铁路局",
    "category": "",
    "type": "乘降所",
    "province": "贵州",
    "city": "黔东南",
    "lng": "106.903043999999",
    "lat": "26.4616259999999"
  },
  {
    "name": "施秉",
    "primary": false,
    "address": "贵州省施秉县杨柳塘镇屯上村",
    "owner": "成都铁路局",
    "category": "",
    "type": "客运站",
    "province": "贵州",
    "city": "黔东南",
    "lng": "108.134225",
    "lat": "26.917155",
    "pinyin": "shibing",
    "abbreviation": "AQW"
  },
  {
    "name": "茨冲",
    "primary": false,
    "address": "贵州省水城县陡箐乡境内",
    "owner": "成都铁路局",
    "category": "",
    "type": "乘降所",
    "province": "贵州",
    "city": "六盘水",
    "lng": "105.109279",
    "lat": "26.4922679999999"
  },
  {
    "name": "双水",
    "primary": false,
    "address": "贵州省水城县滥坝镇境内",
    "owner": "成都铁路局",
    "category": "",
    "type": "乘降所",
    "province": "贵州",
    "city": "六盘水",
    "lng": "104.941657",
    "lat": "26.550888"
  },
  {
    "name": "滥坝",
    "primary": false,
    "address": "贵州省水城县滥坝镇境内",
    "owner": "成都铁路局",
    "category": "",
    "type": "乘降所",
    "province": "贵州",
    "city": "六盘水",
    "lng": "105.040896",
    "lat": "26.546461"
  },
  {
    "name": "二道岩",
    "primary": false,
    "address": "贵州省水城县蟠龙乡境内",
    "owner": "成都铁路局",
    "category": "",
    "type": "乘降所",
    "province": "贵州",
    "city": "六盘水",
    "lng": "105.160876",
    "lat": "26.363855"
  },
  {
    "name": "桐梓",
    "primary": false,
    "address": "贵州省桐梓县城关镇",
    "owner": "成都铁路局",
    "category": "",
    "type": "客运站",
    "province": "贵州",
    "city": "遵义",
    "lng": "106.831988",
    "lat": "28.130461",
    "pinyin": "tongzi",
    "abbreviation": "TZW"
  },
  {
    "name": "凉风垭",
    "primary": false,
    "address": "贵州省桐梓县楚米镇",
    "owner": "成都铁路局",
    "category": "",
    "type": "乘降所",
    "province": "贵州",
    "city": "遵义",
    "lng": "106.828415",
    "lat": "28.24123"
  },
  {
    "name": "大河坝",
    "primary": false,
    "address": "贵州省桐梓县大河村",
    "owner": "成都铁路局",
    "category": "",
    "type": "乘降所",
    "province": "贵州",
    "city": "遵义",
    "lng": "106.844663",
    "lat": "28.319704"
  },
  {
    "name": "红花园",
    "primary": false,
    "address": "贵州省桐梓县娄山关镇",
    "owner": "成都铁路局",
    "category": "",
    "type": "乘降所",
    "province": "贵州",
    "city": "遵义",
    "lng": "106.850693",
    "lat": "28.0651599999999"
  },
  {
    "name": "木竹河",
    "primary": false,
    "address": "贵州省桐梓县木瓜镇",
    "owner": "成都铁路局",
    "category": "",
    "type": "乘降所",
    "province": "贵州",
    "city": "遵义",
    "lng": "106.876407",
    "lat": "28.636227"
  },
  {
    "name": "新场",
    "primary": false,
    "address": "贵州省桐梓县七二村",
    "owner": "成都铁路局",
    "category": "",
    "type": "乘降所",
    "province": "贵州",
    "city": "遵义",
    "lng": "106.842068",
    "lat": "28.2922559999999"
  },
  {
    "name": "三元坝",
    "primary": false,
    "address": "贵州省桐梓县松坎镇",
    "owner": "成都铁路局",
    "category": "",
    "type": "乘降所",
    "province": "贵州",
    "city": "遵义",
    "lng": "106.838421",
    "lat": "28.49025"
  },
  {
    "name": "松坎",
    "primary": false,
    "address": "贵州省桐梓县松坎镇",
    "owner": "成都铁路局",
    "category": "",
    "type": "乘降所",
    "province": "贵州",
    "city": "遵义",
    "lng": "106.87342",
    "lat": "28.5540349999999"
  },
  {
    "name": "九龙塘",
    "primary": false,
    "address": "贵州省桐梓县新站镇",
    "owner": "成都铁路局",
    "category": "",
    "type": "乘降所",
    "province": "贵州",
    "city": "遵义",
    "lng": "106.845634",
    "lat": "28.3593329999999"
  },
  {
    "name": "蒙渡",
    "primary": false,
    "address": "贵州省桐梓县新站镇",
    "owner": "成都铁路局",
    "category": "",
    "type": "乘降所",
    "province": "贵州",
    "city": "遵义",
    "lng": "106.843631",
    "lat": "28.433098"
  },
  {
    "name": "太白",
    "primary": false,
    "address": "贵州省桐梓县新站镇川黔街",
    "owner": "成都铁路局",
    "category": "",
    "type": "乘降所",
    "province": "贵州",
    "city": "遵义",
    "lng": "106.853088",
    "lat": "28.3930569999999"
  },
  {
    "name": "元田坝",
    "primary": false,
    "address": "贵州省桐梓县元田乡",
    "owner": "成都铁路局",
    "category": "",
    "type": "乘降所",
    "province": "贵州",
    "city": "遵义",
    "lng": "106.839856",
    "lat": "28.1911619999999"
  },
  {
    "name": "玉屏",
    "primary": true,
    "address": "贵州省铜仁市玉屏县平溪镇舞阳村",
    "owner": "成都铁路局",
    "category": "",
    "type": "客运站",
    "province": "贵州",
    "city": "铜仁",
    "lng": "108.934689",
    "lat": "27.239851",
    "pinyin": "yuping",
    "abbreviation": "YZW"
  },
  {
    "name": "草海",
    "primary": true,
    "address": "贵州省威宁县草海镇",
    "owner": "成都铁路局",
    "category": "",
    "type": "客运站",
    "province": "贵州",
    "city": "毕节",
    "lng": "104.261413",
    "lat": "26.885801",
    "pinyin": "caohai",
    "abbreviation": "WBW"
  },
  {
    "name": "梅花山",
    "primary": false,
    "address": "贵州省威宁县二塘镇境内",
    "owner": "成都铁路局",
    "category": "",
    "type": "乘降所",
    "province": "贵州",
    "city": "毕节",
    "lng": "104.670053999999",
    "lat": "26.699615"
  },
  {
    "name": "迤那",
    "primary": false,
    "address": "贵州省威宁县迤那镇境内",
    "owner": "成都铁路局",
    "category": "",
    "type": "乘降所",
    "province": "贵州",
    "city": "毕节",
    "lng": "103.886886",
    "lat": "27.081254"
  },
  {
    "name": "花土坡",
    "primary": false,
    "address": "贵州省威宁县中水镇黑土河乡新田村",
    "owner": "成都铁路局",
    "category": "",
    "type": "乘降所",
    "province": "贵州",
    "city": "毕节",
    "lng": "103.841863",
    "lat": "27.2603639999999"
  },
  {
    "name": "蕉溪",
    "primary": false,
    "address": "贵州省镇远县蕉溪镇蕉溪村火车站组",
    "owner": "成都铁路局",
    "category": "",
    "type": "乘降所",
    "province": "贵州",
    "city": "黔西南布依族苗族自治州",
    "lng": "108.552014",
    "lat": "27.07912"
  },
  {
    "name": "青溪",
    "primary": false,
    "address": "贵州省镇远县青溪镇",
    "owner": "成都铁路局",
    "category": "",
    "type": "乘降所",
    "province": "贵州",
    "city": "黔东南",
    "lng": "108.734769",
    "lat": "27.1205019999999"
  },
  {
    "name": "镇远",
    "primary": false,
    "address": "贵州省镇远县舞阳镇西秀街八组",
    "owner": "成都铁路局",
    "category": "",
    "type": "客运站",
    "province": "贵州",
    "city": "黔东南",
    "lng": "108.409927999999",
    "lat": "27.0347149999999",
    "pinyin": "zhenyuan",
    "abbreviation": "ZUW"
  },
  {
    "name": "老王洞",
    "primary": false,
    "address": "贵州省镇远县舞阳镇源河村",
    "owner": "成都铁路局",
    "category": "",
    "type": "乘降所",
    "province": "贵州",
    "city": "黔东南",
    "lng": "108.480889",
    "lat": "27.0795749999999"
  },
  {
    "name": "羊坪",
    "primary": false,
    "address": "贵州省镇远县羊坪镇下街",
    "owner": "成都铁路局",
    "category": "",
    "type": "乘降所",
    "province": "贵州",
    "city": "黔东南",
    "lng": "108.831359",
    "lat": "27.178998"
  },
  {
    "name": "水花",
    "primary": false,
    "address": "贵州省镇远县涌溪乡中屯村",
    "owner": "成都铁路局",
    "category": "",
    "type": "乘降所",
    "province": "贵州",
    "city": "黔东南",
    "lng": "108.27737",
    "lat": "26.9966779999999"
  },
  {
    "name": "织金",
    "primary": false,
    "address": "贵州省织金县城关镇外环路",
    "owner": "成都铁路局",
    "category": "",
    "type": "客运站",
    "province": "贵州",
    "city": "毕节",
    "lng": "105.761973",
    "lat": "26.653905",
    "pinyin": "zhijin",
    "abbreviation": "IZW"
  },
  {
    "name": "遵义",
    "primary": true,
    "address": "贵州省遵义市红花岗区北京路1号",
    "owner": "成都铁路局",
    "category": "",
    "type": "客运站",
    "province": "贵州",
    "city": "遵义",
    "lng": "106.948235999999",
    "lat": "27.702838",
    "pinyin": "zunyi",
    "abbreviation": "ZYE"
  },
  {
    "name": "汇塘河",
    "primary": false,
    "address": "贵州省遵义市汇川区板桥镇",
    "owner": "成都铁路局",
    "category": "",
    "type": "乘降所",
    "province": "贵州",
    "city": "遵义",
    "lng": "106.923124",
    "lat": "27.968584"
  },
  {
    "name": "松坝",
    "primary": false,
    "address": "贵州省遵义市汇川区泗渡镇松杉村松江组",
    "owner": "成都铁路局",
    "category": "",
    "type": "乘降所",
    "province": "贵州",
    "city": "遵义",
    "lng": "106.957638",
    "lat": "27.915253"
  },
  {
    "name": "巴中",
    "primary": true,
    "address": "四川省巴中市巴州区玉堂街道办事处北龛社区四社",
    "owner": "成都铁路局",
    "category": "",
    "type": "客运站",
    "province": "四川",
    "city": "巴中",
    "lng": "106.765781",
    "lat": "31.8734539999999",
    "pinyin": "bazhong",
    "abbreviation": "IEW"
  },
  {
    "name": "成都东",
    "primary": true,
    "address": "四川省成都市成华区保和街道万科路4号",
    "owner": "成都铁路局",
    "category": "",
    "type": "客运站",
    "province": "四川",
    "city": "成都",
    "lng": "104.141279999999",
    "lat": "30.6288419999999",
    "pinyin": "chengdudong",
    "abbreviation": "ICW"
  },
  {
    "name": "都江堰",
    "primary": true,
    "address": "四川省成都市都江堰市永安大道紫荆城旁",
    "owner": "成都铁路局",
    "category": "",
    "type": "客运站",
    "province": "四川",
    "city": "成都",
    "lng": "103.638386",
    "lat": "30.957193",
    "pinyin": "dujiangyan",
    "abbreviation": "DDW"
  },
  {
    "name": "成都",
    "primary": true,
    "address": "四川省成都市金牛区站东路1号",
    "owner": "成都铁路局",
    "category": "",
    "type": "客运站",
    "province": "四川",
    "city": "成都",
    "lng": "104.073358",
    "lat": "30.697306",
    "pinyin": "chengdu",
    "abbreviation": "CDW"
  },
  {
    "name": "洪安乡",
    "primary": false,
    "address": "四川省成都市龙泉区洪安乡车站",
    "owner": "成都铁路局",
    "category": "",
    "type": "乘降所",
    "province": "四川",
    "city": "成都",
    "lng": "104.336474",
    "lat": "30.7101849999999"
  },
  {
    "name": "马街",
    "primary": false,
    "address": "四川省成都市郫县古城镇",
    "owner": "成都铁路局",
    "category": "",
    "type": "乘降所",
    "province": "四川",
    "city": "成都",
    "lng": "103.892141",
    "lat": "22.659555"
  },
  {
    "name": "红光镇",
    "primary": false,
    "address": "四川省成都市郫县红光镇",
    "owner": "成都铁路局",
    "category": "",
    "type": "乘降所",
    "province": "四川",
    "city": "成都",
    "lng": "103.943715",
    "lat": "30.771692",
    "pinyin": "hongguangzhen",
    "abbreviation": "IGW"
  },
  {
    "name": "郫县西",
    "primary": false,
    "address": "四川省成都市郫县郫筒镇菠萝村",
    "owner": "成都铁路局",
    "category": "",
    "type": "客运站",
    "province": "四川",
    "city": "成都",
    "lng": "103.879737",
    "lat": "30.823839",
    "pinyin": "pixianxi",
    "abbreviation": "PCW"
  },
  {
    "name": "郫县东",
    "primary": false,
    "address": "四川省成都市郫县双柏路口",
    "owner": "成都铁路局",
    "category": "",
    "type": "乘降所",
    "province": "四川",
    "city": "成都",
    "lng": "103.926146",
    "lat": "30.792549"
  },
  {
    "name": "郫县",
    "primary": false,
    "address": "四川省成都市郫县望丛东路路口",
    "owner": "成都铁路局",
    "category": "",
    "type": "乘降所",
    "province": "四川",
    "city": "成都",
    "lng": "103.908214",
    "lat": "30.8081679999999",
    "pinyin": "pixian",
    "abbreviation": "PWW"
  },
  {
    "name": "犀浦",
    "primary": true,
    "address": "四川省成都市郫县犀浦镇犀湖街88号",
    "owner": "成都铁路局",
    "category": "",
    "type": "客运站",
    "province": "四川",
    "city": "成都",
    "lng": "103.972416",
    "lat": "30.756976",
    "pinyin": "xipu",
    "abbreviation": "XIW"
  },
  {
    "name": "红花塘",
    "primary": false,
    "address": "四川省成都市青白江区龙王乡十六组",
    "owner": "成都铁路局",
    "category": "",
    "type": "乘降所",
    "province": "四川",
    "city": "成都",
    "lng": "104.47815",
    "lat": "30.666757"
  },
  {
    "name": "陈家湾",
    "primary": false,
    "address": "四川省成都市青白江区人和乡车站村",
    "owner": "成都铁路局",
    "category": "",
    "type": "乘降所",
    "province": "四川",
    "city": "成都",
    "lng": "104.424763",
    "lat": "30.703137"
  },
  {
    "name": "青城山",
    "primary": true,
    "address": "四川省成都市青城山高铁站",
    "owner": "成都铁路局",
    "category": "",
    "type": "客运站",
    "province": "四川",
    "city": "成都",
    "lng": "103.606395",
    "lat": "30.8917329999999",
    "pinyin": "qingchengshan",
    "abbreviation": "QSW"
  },
  {
    "name": "公兴",
    "primary": false,
    "address": "四川省成都市双流县公兴镇朱家庙村公兴火车站",
    "owner": "成都铁路局",
    "category": "",
    "type": "乘降所",
    "province": "四川",
    "city": "成都",
    "lng": "103.968497",
    "lat": "30.4795109999999"
  },
  {
    "name": "成都南",
    "primary": true,
    "address": "四川省成都市武侯区火车南站1号",
    "owner": "成都铁路局",
    "category": "",
    "type": "客运站",
    "province": "四川",
    "city": "成都",
    "lng": "104.068490999999",
    "lat": "30.605982",
    "pinyin": "chengdunan",
    "abbreviation": "CNW"
  },
  {
    "name": "犀浦东",
    "primary": false,
    "address": "四川省成都市犀浦万福村万福一街",
    "owner": "成都铁路局",
    "category": "",
    "type": "乘降所",
    "province": "四川",
    "city": "成都",
    "lng": "103.990714",
    "lat": "30.736483",
    "pinyin": "xipudong",
    "abbreviation": "XAW"
  },
  {
    "name": "新津",
    "primary": false,
    "address": "四川省成都市新津县普兴镇新津火车站",
    "owner": "成都铁路局",
    "category": "",
    "type": "乘降所",
    "province": "四川",
    "city": "成都",
    "lng": "103.873476999999",
    "lat": "30.464421",
    "pinyin": "xinjin",
    "abbreviation": "IRW"
  },
  {
    "name": "渡市",
    "primary": false,
    "address": "四川省达州市达川区木头乡",
    "owner": "成都铁路局",
    "category": "",
    "type": "乘降所",
    "province": "四川",
    "city": "达州",
    "lng": "107.284893999999",
    "lat": "31.025822"
  },
  {
    "name": "覃家坝",
    "primary": false,
    "address": "四川省达州市达县申家乡",
    "owner": "成都铁路局",
    "category": "",
    "type": "乘降所",
    "province": "四川",
    "city": "达州",
    "lng": "107.353004",
    "lat": "31.0714289999999"
  },
  {
    "name": "三汇镇",
    "primary": false,
    "address": "四川省达州市渠县三汇镇工矿区17号",
    "owner": "成都铁路局",
    "category": "",
    "type": "客运站",
    "province": "四川",
    "city": "达州",
    "lng": "107.17444",
    "lat": "31.014875",
    "pinyin": "sanhuizhen",
    "abbreviation": "OZW"
  },
  {
    "name": "土溪",
    "primary": false,
    "address": "四川省达州市渠县土溪镇先锋村4组",
    "owner": "成都铁路局",
    "category": "",
    "type": "客运站",
    "province": "四川",
    "city": "达州",
    "lng": "107.076284",
    "lat": "31.02075",
    "pinyin": "tuxi",
    "abbreviation": "TSW"
  },
  {
    "name": "达州",
    "primary": true,
    "address": "四川省达州市通川区朝阳西路路94号",
    "owner": "成都铁路局",
    "category": "",
    "type": "客运站",
    "province": "四川",
    "city": "达州",
    "lng": "107.453172",
    "lat": "31.1985819999999",
    "pinyin": "dazhou",
    "abbreviation": "RXW"
  },
  {
    "name": "永郎",
    "primary": false,
    "address": "四川省德昌县永郎镇永胜路184号",
    "owner": "成都铁路局",
    "category": "",
    "type": "客运站",
    "province": "四川",
    "city": "凉山彝族自治州",
    "lng": "102.252968",
    "lat": "27.149583",
    "pinyin": "yonglang",
    "abbreviation": "YLW"
  },
  {
    "name": "德阳",
    "primary": true,
    "address": "四川省德阳市黄山路三段100号",
    "owner": "成都铁路局",
    "category": "",
    "type": "客运站",
    "province": "四川",
    "city": "德阳",
    "lng": "104.390067",
    "lat": "31.165965",
    "pinyin": "deyang",
    "abbreviation": "DYW"
  },
  {
    "name": "罗江",
    "primary": false,
    "address": "四川省德阳市罗江县万安镇麓峰北路2号",
    "owner": "成都铁路局",
    "category": "",
    "type": "客运站",
    "province": "四川",
    "city": "德阳",
    "lng": "104.500007999999",
    "lat": "31.3067409999999",
    "pinyin": "luojiang",
    "abbreviation": "LJW"
  },
  {
    "name": "迎宾路",
    "primary": false,
    "address": "四川省都江堰市幸福镇三江路仰天广场",
    "owner": "成都铁路局",
    "category": "",
    "type": "乘降所",
    "province": "四川",
    "city": "成都",
    "lng": "103.641008",
    "lat": "30.980788",
    "pinyin": "yingbinlu",
    "abbreviation": "YFW"
  },
  {
    "name": "离堆公园",
    "primary": true,
    "address": "四川省都江堰市幸福镇迎宾路口",
    "owner": "成都铁路局",
    "category": "",
    "type": "乘降所",
    "province": "四川",
    "city": "成都",
    "lng": "103.623906",
    "lat": "30.993441",
    "pinyin": "liduigongyuan",
    "abbreviation": "INW"
  },
  {
    "name": "燕岗",
    "primary": false,
    "address": "四川省峨眉山市桂花桥镇前进北5号",
    "owner": "成都铁路局",
    "category": "",
    "type": "客运站",
    "province": "四川",
    "city": "乐山",
    "lng": "103.524135",
    "lat": "29.552688",
    "pinyin": "yangang",
    "abbreviation": "YGW"
  },
  {
    "name": "杨漩",
    "primary": false,
    "address": "四川省峨眉山市龙门乡杨漩村",
    "owner": "成都铁路局",
    "category": "",
    "type": "乘降所",
    "province": "四川",
    "city": "乐山",
    "lng": "103.399654",
    "lat": "29.304143"
  },
  {
    "name": "峨眉",
    "primary": true,
    "address": "四川省峨眉山市胜利镇南陈街",
    "owner": "成都铁路局",
    "category": "",
    "type": "客运站",
    "province": "四川",
    "city": "乐山",
    "lng": "103.522014",
    "lat": "29.5913159999999",
    "pinyin": "emei",
    "abbreviation": "EMW"
  },
  {
    "name": "双福",
    "primary": false,
    "address": "四川省峨眉山市双福镇",
    "owner": "成都铁路局",
    "category": "",
    "type": "乘降所",
    "province": "四川",
    "city": "乐山",
    "lng": "103.531261",
    "lat": "29.688019"
  },
  {
    "name": "苏雄",
    "primary": false,
    "address": "四川省甘洛县阿兹觉乡境内",
    "owner": "成都铁路局",
    "category": "",
    "type": "乘降所",
    "province": "四川",
    "city": "凉山彝族自治州",
    "lng": "102.87281",
    "lat": "29.145893"
  },
  {
    "name": "尼日",
    "primary": false,
    "address": "四川省甘洛县阿兹觉乡卡尔村尼日组",
    "owner": "成都铁路局",
    "category": "",
    "type": "乘降所",
    "province": "四川",
    "city": "凉山彝族自治州",
    "lng": "102.861827",
    "lat": "29.202862"
  },
  {
    "name": "凉红",
    "primary": false,
    "address": "四川省甘洛县阿兹觉乡凉红村",
    "owner": "成都铁路局",
    "category": "",
    "type": "乘降所",
    "province": "四川",
    "city": "凉山彝族自治州",
    "lng": "102.823646999999",
    "lat": "29.087382"
  },
  {
    "name": "阿寨",
    "primary": false,
    "address": "四川省甘洛县玉田镇阿寨村",
    "owner": "成都铁路局",
    "category": "",
    "type": "乘降所",
    "province": "四川",
    "city": "凉山彝族自治州",
    "lng": "102.677593",
    "lat": "28.890401"
  },
  {
    "name": "广安",
    "primary": false,
    "address": "四川省广安市前锋区",
    "owner": "成都铁路局",
    "category": "",
    "type": "客运站",
    "province": "四川",
    "city": "广安",
    "lng": "106.89678",
    "lat": "30.493988",
    "pinyin": "guangan",
    "abbreviation": "VJW"
  },
  {
    "name": "岳池",
    "primary": false,
    "address": "四川省广安市岳池县火车站",
    "owner": "成都铁路局",
    "category": "",
    "type": "客运站",
    "province": "四川",
    "city": "广安",
    "lng": "106.470558",
    "lat": "30.5364749999999",
    "pinyin": "yuechi",
    "abbreviation": "AWW"
  },
  {
    "name": "广安南",
    "primary": true,
    "address": "四川省广安市枣山镇",
    "owner": "成都铁路局",
    "category": "",
    "type": "客运站",
    "province": "四川",
    "city": "广安",
    "lng": "106.592714",
    "lat": "30.451791",
    "pinyin": "guangannan",
    "abbreviation": "VUW"
  },
  {
    "name": "广汉",
    "primary": false,
    "address": "四川省广汉市雒城镇站北路",
    "owner": "成都铁路局",
    "category": "",
    "type": "客运站",
    "province": "四川",
    "city": "广元",
    "lng": "104.260938999999",
    "lat": "30.979049",
    "pinyin": "guanghan",
    "abbreviation": "GHW"
  },
  {
    "name": "广元南",
    "primary": false,
    "address": "四川省广元市利州区利州西路二段",
    "owner": "成都铁路局",
    "category": "",
    "type": "乘降所",
    "province": "四川",
    "city": "广元",
    "lng": "105.798649999999",
    "lat": "32.4177749999999",
    "pinyin": "guangyuannan",
    "abbreviation": "GAW"
  },
  {
    "name": "广元",
    "primary": true,
    "address": "四川省广元市利州区上西金轮路？",
    "owner": "成都铁路局",
    "category": "",
    "type": "客运站",
    "province": "四川",
    "city": "广元",
    "lng": "105.821611",
    "lat": "32.4500809999999",
    "pinyin": "guangyuan",
    "abbreviation": "GYW"
  },
  {
    "name": "广元东",
    "primary": false,
    "address": "四川省广元市利州区瞻凤街299号公路对面",
    "owner": "成都铁路局",
    "category": "",
    "type": "乘降所",
    "province": "四川",
    "city": "广元",
    "lng": "105.838423",
    "lat": "32.4417779999999"
  },
  {
    "name": "竹园坝",
    "primary": false,
    "address": "四川省广元市青川县竹园坝镇",
    "owner": "成都铁路局",
    "category": "",
    "type": "客运站",
    "province": "四川",
    "city": "广元",
    "lng": "105.169963",
    "lat": "32.189515",
    "pinyin": "zhuyuanba",
    "abbreviation": "ZAW"
  },
  {
    "name": "白水",
    "primary": false,
    "address": "四川省广元市旺苍县白水镇场镇",
    "owner": "成都铁路局",
    "category": "",
    "type": "乘降所",
    "province": "四川",
    "city": "广元",
    "lng": "106.027468",
    "lat": "32.2602049999999"
  },
  {
    "name": "旺苍",
    "primary": false,
    "address": "四川省广元市旺苍县东河镇白马寺社区",
    "owner": "成都铁路局",
    "category": "",
    "type": "客运站",
    "province": "四川",
    "city": "广元",
    "lng": "106.363872",
    "lat": "32.2386369999999",
    "pinyin": "wangcang",
    "abbreviation": "WEW"
  },
  {
    "name": "黄洋",
    "primary": false,
    "address": "四川省广元市旺苍县黄洋镇太阳村一社",
    "owner": "成都铁路局",
    "category": "",
    "type": "乘降所",
    "province": "四川",
    "city": "广元",
    "lng": "106.359682",
    "lat": "32.2407109999999"
  },
  {
    "name": "嘉川",
    "primary": false,
    "address": "四川省广元市旺苍县嘉川镇灯塔村",
    "owner": "成都铁路局",
    "category": "",
    "type": "乘降所",
    "province": "四川",
    "city": "广元",
    "lng": "106.202268",
    "lat": "32.212367"
  },
  {
    "name": "普济",
    "primary": false,
    "address": "四川省广元市旺苍县普济镇场镇",
    "owner": "成都铁路局",
    "category": "",
    "type": "乘降所",
    "province": "四川",
    "city": "广元",
    "lng": "106.455462",
    "lat": "32.240014"
  },
  {
    "name": "尚武",
    "primary": false,
    "address": "四川省广元市旺苍县尚武镇榆饯村",
    "owner": "成都铁路局",
    "category": "",
    "type": "乘降所",
    "province": "四川",
    "city": "广元",
    "lng": "106.124307",
    "lat": "32.2290619999999"
  },
  {
    "name": "元坝",
    "primary": false,
    "address": "四川省广元市昭化区元坝镇",
    "owner": "成都铁路局",
    "category": "",
    "type": "乘降所",
    "province": "四川",
    "city": "凉山彝族自治州",
    "lng": "105.964581999999",
    "lat": "32.326774"
  },
  {
    "name": "汉源",
    "primary": true,
    "address": "四川省汉源县乌斯河镇进站路",
    "owner": "成都铁路局",
    "category": "",
    "type": "客运站",
    "province": "四川",
    "city": "凉山彝族自治州",
    "lng": "102.905699",
    "lat": "29.232892",
    "pinyin": "hanyuan",
    "abbreviation": "WHW"
  },
  {
    "name": "长河坝",
    "primary": false,
    "address": "四川省汉源县永利乡境内",
    "owner": "成都铁路局",
    "category": "",
    "type": "乘降所",
    "province": "四川",
    "city": "凉山彝族自治州",
    "lng": "102.94253",
    "lat": "29.3095889999999"
  },
  {
    "name": "华蓥",
    "primary": false,
    "address": "四川省华蓥市",
    "owner": "成都铁路局",
    "category": "",
    "type": "客运站",
    "province": "四川",
    "city": "广安",
    "lng": "106.781195999999",
    "lat": "30.3634519999999",
    "pinyin": "huaying",
    "abbreviation": "HUW"
  },
  {
    "name": "高兴",
    "primary": false,
    "address": "四川省华蓥市高兴镇八达路300号火车站",
    "owner": "成都铁路局",
    "category": "",
    "type": "乘降所",
    "province": "四川",
    "city": "广安",
    "lng": "106.731086",
    "lat": "30.275941"
  },
  {
    "name": "马村",
    "primary": false,
    "address": "四川省夹江县马村乡代河村",
    "owner": "成都铁路局",
    "category": "",
    "type": "乘降所",
    "province": "四川",
    "city": "乐山",
    "lng": "103.607181",
    "lat": "29.812662"
  },